#	dia(1)	hora(1)	gyroX	gyroY	gyroZ	accelX	accelY	accelZ	roll	pitch	yaw	brujula	vientoFG	varianzaRoll	varianzaPitch	direccion	gpsLong	gpsLat	altime	motores(4)	motores(4)	motores(4)	motores(4)
0	2019-06-05	15:17:36	-37.11700439453125	-54.69512939453125	-76.17950439453125	-0.530029296875	-2.0	0.978759765625	-25.166	-3.811	-18.854	NW	2.069041095663836	23.30400450258141	-0.7857035778412764	W	gpsLong	gpsLat	700	1000	1000	1000	1000
1	2019-06-05	15:17:36	13.671875	64.453125	-48.83575439453125	1.736083984375	-1.159912109375	0.343017578125	-29.475	0.552	-17.18	NW	2.087913720027276	4.309183582624982	-4.362436735818679	W	gpsLong	gpsLat	700	1000	1000	1000	1000
2	2019-06-05	15:17:36	29.296875	-11.72637939453125	-62.50762939453125	-0.922119140625	-2.0	0.73095703125	-36.991	1.611	-15.525	NW	2.2023405071666344	7.515862769716527	-1.0591869215867473	W	gpsLong	gpsLat	700	1000	1000	1000	1000
3	2019-06-05	15:17:36	-1.96075439453125	-37.11700439453125	-19.53887939453125	0.67138671875	-0.269287109375	0.268798828125	-37.689	3.863	-14.688	NW	0.7233779602596659	0.6982569211187908	-2.252227207541516	W	gpsLong	gpsLat	700	1000	1000	1000	1000
4	2019-06-05	15:17:36	25.390625	140.625	-52.74200439453125	1.0107421875	0.65576171875	1.38232421875	-32.791	11.269	-13.648	NW	1.204833267041643	-4.898673775115746	-7.406133644141311	S	gpsLong	gpsLat	700	1000	1000	1000	1000
5	2019-06-05	15:17:37	25.390625	7.8125	-58.60137939453125	-1.31201171875	1.360107421875	1.515625	-23.211	6.119	-15.772	NW	1.8897796033338883	-9.579938310321698	5.150453873769104	S	gpsLong	gpsLat	700	1000	1000	1000	1000
6	2019-06-05	15:17:37	-29.30450439453125	23.4375	-80.08575439453125	-0.315185546875	0.28369140625	1.202392578125	-10.605	3.208	-16.883	NW	0.4240551178078097	-12.606123291774615	2.910734061095402	S	gpsLong	gpsLat	700	1000	1000	1000	1000
7	2019-06-05	15:17:37	126.953125	-11.72637939453125	-29.30450439453125	1.2216796875	-1.016845703125	0.614990234375	-11.753	7.676	-16.333	NW	1.5894893654296254	1.1483002010357914	-4.467498414206444	W	gpsLong	gpsLat	700	1000	1000	1000	1000
8	2019-06-05	15:17:37	64.453125	111.328125	-56.64825439453125	-0.794921875	1.11181640625	1.609130859375	-7.855	12.717	-15.948	NW	1.3667613209921403	-3.8977907619459016	-5.041235613402641	S	gpsLong	gpsLat	700	1000	1000	1000	1000
9	2019-06-05	15:17:37	44.921875	54.6875	-39.07012939453125	-1.806884765625	-1.7939453125	1.400390625	-11.012	3.481	-15.985	NW	2.546187805423715	3.156601521165716	9.235942862065464	N	gpsLong	gpsLat	700	1000	1000	1000	1000
10	2019-06-05	15:17:37	54.6875	19.53125	-72.27325439453125	0.785888671875	0.110595703125	0.387451171875	-17.342	1.548	-15.583	NW	0.7936324175152906	6.3304090502680115	1.9328241828310877	N	gpsLong	gpsLat	700	1000	1000	1000	1000
11	2019-06-05	15:17:37	3.90625	5.859375	-11.72637939453125	0.962158203125	1.99993896484375	1.21923828125	-4.266	6.049	-15.606	NW	2.21934771294203	-13.075902127113205	-4.501175617660371	S	gpsLong	gpsLat	700	1000	1000	1000	1000
12	2019-06-05	15:17:38	3.90625	9.765625	-33.21075439453125	-1.706787109375	-1.69580078125	1.638671875	-1.864	1.617	-15.496	NW	2.4060055125491253	-2.402342148237711	4.432786690140528	S	gpsLong	gpsLat	700	1000	1000	1000	1000
13	2019-06-05	15:17:38	-19.53887939453125	101.5625	-70.32012939453125	1.149658203125	-0.220947265625	0.35009765625	-6.334	-2.322	-15.311	NW	1.1706970907112428	4.46967128809055	3.9385906546607146	N	gpsLong	gpsLat	700	1000	1000	1000	1000
14	2019-06-05	15:17:38	-1.96075439453125	54.6875	-91.80450439453125	-0.447265625	-2.0	1.17919921875	-16.456	1.496	-14.268	NW	2.049401507588652	10.121900920673841	-3.817647372830475	W	gpsLong	gpsLat	700	1000	1000	1000	1000
15	2019-06-05	15:17:38	17.578125	-93.75762939453125	-35.16387939453125	-0.43017578125	-0.401123046875	1.37841796875	-21.66	1.864	-13.685	NW	0.5881759103434374	5.204564220486983	-0.36877217759776304	W	gpsLong	gpsLat	700	1000	1000	1000	1000
16	2019-06-05	15:17:38	91.796875	41.015625	-62.50762939453125	-0.102783203125	1.99993896484375	0.7119140625	-7.726	1.824	-14.366	NW	2.0025784004490124	-13.934135010796005	0.040832662770807326	SE	gpsLong	gpsLat	700	1000	1000	1000	1000
17	2019-06-05	15:17:38	33.203125	37.109375	-66.41387939453125	-0.579345703125	-0.822998046875	1.2021484375	-1.084	1.535	-14.29	NW	1.0064627309987515	-6.641941999040874	0.28819832658425737	SE	gpsLong	gpsLat	700	1000	1000	1000	1000
18	2019-06-05	15:17:38	-0.00762939453125	0.0	-50.78887939453125	0.285888671875	-2.0	1.180908203125	-12.119	-2.829	-13.922	NW	2.0203297584073874	11.035137353423439	4.364707357434583	N	gpsLong	gpsLat	700	1000	1000	1000	1000
19	2019-06-05	15:17:39	41.015625	132.8125	-44.92950439453125	1.382568359375	1.765869140625	1.23095703125	-6.905	2.528	-13.457	NW	2.2427191286820904	-5.214405874558201	-5.356994214319381	S	gpsLong	gpsLat	700	1000	1000	1000	1000
20	2019-06-05	15:17:39	-11.72637939453125	89.84375	-13.67950439453125	-1.407958984375	0.489013671875	1.428955078125	-0.114	1.907	-13.347	NW	1.4904639790893812	-6.790424183150955	0.6210553322101671	S	gpsLong	gpsLat	700	1000	1000	1000	1000
21	2019-06-05	15:17:39	83.984375	17.578125	-41.02325439453125	0.473388671875	1.99993896484375	1.473876953125	9.363	-0.851	-12.998	NW	2.055201376449487	-9.477191548416357	2.7571548139088318	S	gpsLong	gpsLat	700	1000	1000	1000	1000
22	2019-06-05	15:17:39	5.859375	89.84375	-89.85137939453125	-1.7001953125	-0.321533203125	1.595458984375	10.635	-3.72	-12.527	NW	1.7303316738009493	-1.2722664459245792	2.8697505377636015	S	gpsLong	gpsLat	700	1000	1000	1000	1000
23	2019-06-05	15:17:39	-29.30450439453125	-21.49200439453125	-80.08575439453125	-1.5576171875	-0.423828125	1.848388671875	9.214	-8.812	-11.978	NW	1.6142495415320475	1.4212876995141173	5.091421023260782	N	gpsLong	gpsLat	700	1000	1000	1000	1000
24	2019-06-05	15:17:39	-21.49200439453125	95.703125	-35.16387939453125	-1.056396484375	1.2587890625	1.0205078125	13.848	-12.647	-11.328	NW	1.6433269413204084	-4.634333771862385	3.8356778202523767	N	gpsLong	gpsLat	700	1000	1000	1000	1000
25	2019-06-05	15:17:40	33.203125	-82.03887939453125	-83.99200439453125	-0.4326171875	1.14208984375	1.361328125	21.845	-10.254	-10.89	N	1.221280820334664	-7.997112954235224	-2.393600346797223	S	gpsLong	gpsLat	700	1000	1000	1000	1000
26	2019-06-05	15:17:40	39.0625	-25.39825439453125	-83.99200439453125	-0.666015625	0.130126953125	1.503662109375	17.207	-15.388	-10.257	N	0.6786087508083996	4.638345570488045	5.133798374011425	N	gpsLong	gpsLat	700	1000	1000	1000	1000
27	2019-06-05	15:17:40	76.171875	3.90625	-87.89825439453125	1.99993896484375	0.986572265625	0.7158203125	16.75	-8.56	-10.767	N	2.230040514968447	0.45730890225558696	-6.827267078352744	W	gpsLong	gpsLat	700	1000	1000	1000	1000
28	2019-06-05	15:17:40	-33.21075439453125	117.1875	-85.94512939453125	-0.6533203125	-0.97900390625	1.417236328125	13.316	-10.495	-10.507	N	1.1769775185524387	3.4334591606170513	1.9346539688882576	N	gpsLong	gpsLat	700	1000	1000	1000	1000
29	2019-06-05	15:17:40	-3.91387939453125	-29.30450439453125	-52.74200439453125	0.738037109375	1.99993896484375	1.24609375	15.823	-5.093	-10.626	N	2.1317726515543107	-2.5068929193183696	-5.401984604958564	S	gpsLong	gpsLat	700	1000	1000	1000	1000
30	2019-06-05	15:17:40	21.484375	-158.21075439453125	-66.41387939453125	-0.241943359375	-1.348876953125	1.353271484375	7.424	-7.703	-10.435	N	1.3704034529354645	8.398744672619216	2.6103934736219543	N	gpsLong	gpsLat	700	1000	1000	1000	1000
31	2019-06-05	15:17:40	160.15625	148.4375	-144.53887939453125	-0.514404296875	-1.4423828125	1.107666015625	7.007	-7.689	-10.042	N	1.5313653902445599	0.4169360869527656	-0.01463245113453926	NW	gpsLong	gpsLat	700	1000	1000	1000	1000
32	2019-06-05	15:17:41	19.53125	-19.53887939453125	-41.02325439453125	-1.521240234375	-1.75439453125	1.651123046875	1.297	-12.082	-9.815	N	2.3220835518906746	5.710286030215771	4.393609700038268	N	gpsLong	gpsLat	700	1000	1000	1000	1000
33	2019-06-05	15:17:41	-58.60137939453125	68.359375	-76.17950439453125	-0.0361328125	1.759765625	0.83837890625	3.32	-9.928	-9.568	N	1.7601365387579455	-2.0225038846185157	-2.154188508071158	S	gpsLong	gpsLat	700	1000	1000	1000	1000
34	2019-06-05	15:17:41	31.25	-158.21075439453125	-48.83575439453125	-0.613525390625	-2.0	1.176025390625	-1.886	-8.604	-9.438	N	2.0919879074558625	5.2051127270024615	-1.324664105583949	W	gpsLong	gpsLat	700	1000	1000	1000	1000
35	2019-06-05	15:17:41	19.53125	19.53125	-50.78887939453125	-0.918212890625	1.505615234375	1.11767578125	3.902	-9.597	-9.223	N	1.763516982195523	-5.787266689720059	0.9938753468058792	W	gpsLong	gpsLat	700	1000	1000	1000	1000
36	2019-06-05	15:17:41	17.578125	-3.91387939453125	-68.36700439453125	1.153564453125	0.769775390625	0.673095703125	5.206	-3.009	-9.193	N	1.3868183368867935	-1.3038353527010167	-6.588641929875404	S	gpsLong	gpsLat	700	1000	1000	1000	1000
37	2019-06-05	15:17:41	-3.91387939453125	-15.63262939453125	-87.89825439453125	-0.295654296875	0.2294921875	0.901123046875	1.33	-6.294	-8.824	N	0.37427012622461037	3.875967318852327	3.284801398777344	N	gpsLong	gpsLat	700	1000	1000	1000	1000
38	2019-06-05	15:17:41	130.859375	39.0625	-66.41387939453125	-0.010009765625	1.99993896484375	1.54443359375	8.281	-2.49	-8.494	N	1.9999640143032968	-6.951862555896333	-3.8035625411555514	S	gpsLong	gpsLat	700	1000	1000	1000	1000
39	2019-06-05	15:17:42	-37.11700439453125	158.203125	-35.16387939453125	-0.696044921875	0.24072265625	1.520751953125	12.685	-3.209	-8.101	N	0.7364957097634924	-4.403791757071563	0.7192632308833637	S	gpsLong	gpsLat	700	1000	1000	1000	1000
40	2019-06-05	15:17:42	3.90625	-58.60137939453125	-31.25762939453125	-0.920654296875	-0.5439453125	1.705810546875	9.465	-6.798	-7.77	N	1.069336634248132	3.220344156209551	3.588464441516703	N	gpsLong	gpsLat	700	1000	1000	1000	1000
41	2019-06-05	15:17:42	-68.36700439453125	-33.21075439453125	-89.85137939453125	0.298583984375	-0.83544921875	0.377685546875	8.193	-7.487	-7.574	N	0.8872022276996578	1.2715663797918673	0.6897381023989517	N	gpsLong	gpsLat	700	1000	1000	1000	1000
42	2019-06-05	15:17:42	39.0625	-103.52325439453125	-37.11700439453125	0.684814453125	-0.1416015625	0.024169921875	13.549	-4.078	-7.52	N	0.6993009636139037	-5.355198463684852	-3.4095310668744956	S	gpsLong	gpsLat	700	1000	1000	1000	1000
43	2019-06-05	15:17:42	37.109375	-5.86700439453125	3.90625	1.280517578125	-0.197998046875	0.07373046875	16.033	1.957	-8.105	N	1.2957347315146839	-2.4844645375475967	-6.0353642501878095	S	gpsLong	gpsLat	700	1000	1000	1000	1000
44	2019-06-05	15:17:42	82.03125	-95.71075439453125	13.671875	0.347412109375	-0.78515625	1.338623046875	13.233	2.487	-8.15	N	0.8585834325529753	2.800228819834363	-0.5297577974666581	W	gpsLong	gpsLat	700	1000	1000	1000	1000
45	2019-06-05	15:17:42	-5.86700439453125	54.6875	31.25	1.99993896484375	0.31103515625	-0.47265625	11.986	1.888	-8.073	N	2.0239809118476764	1.2467461372989845	0.5991001445005208	N	gpsLong	gpsLat	700	1000	1000	1000	1000
46	2019-06-05	15:17:43	27.34375	39.0625	-1.96075439453125	1.904541015625	-2.0	-0.178466796875	7.875	0.898	-7.945	N	2.761752429201051	4.111308940219165	0.9905288658682385	N	gpsLong	gpsLat	700	1000	1000	1000	1000
47	2019-06-05	15:17:43	-39.07012939453125	-9.77325439453125	27.34375	0.428955078125	-1.051513671875	1.031494140625	4.869	-0.718	-7.908	N	1.135642312169316	3.0059564797153913	1.6154974557910378	N	gpsLong	gpsLat	700	1000	1000	1000	1000
48	2019-06-05	15:17:43	95.703125	-50.78887939453125	-46.88262939453125	-2.0	-0.502685546875	1.707275390625	5.239	-2.218	-7.717	N	2.062205799389823	-0.3705994545744389	1.4996853417995624	N	gpsLong	gpsLat	700	1000	1000	1000	1000
49	2019-06-05	15:17:43	-64.46075439453125	42.96875	-58.60137939453125	-0.825439453125	-1.77880859375	0.9765625	6.656	-1.551	-7.572	N	1.9609972728115028	-1.4163607242149574	-0.6664133429880141	S	gpsLong	gpsLat	700	1000	1000	1000	1000
50	2019-06-05	15:17:43	5.859375	44.921875	-82.03887939453125	0.130615234375	-0.955322265625	0.95654296875	2.74	0.572	-7.488	N	0.9642100241387865	3.9159111358813066	-2.122834963924353	W	gpsLong	gpsLat	700	1000	1000	1000	1000
51	2019-06-05	15:17:43	31.25	-7.82012939453125	-21.49200439453125	0.58251953125	-0.265380859375	0.36376953125	3.831	-0.731	-7.243	N	0.6401218671552575	-1.0912605131056	1.302454626246314	W	gpsLong	gpsLat	700	1000	1000	1000	1000
52	2019-06-05	15:17:43	-7.82012939453125	44.921875	-68.36700439453125	1.99853515625	-0.86181640625	-0.221923828125	4.953	1.16	-7.116	N	2.176435225052397	-1.1215150518512207	-1.890752364303499	S	gpsLong	gpsLat	700	1000	1000	1000	1000
53	2019-06-05	15:17:44	15.625	-46.88262939453125	-37.11700439453125	0.622314453125	-0.808837890625	1.13916015625	3.745	2.218	-6.993	N	1.020536139428177	1.2075932543596721	-1.0584676069758605	W	gpsLong	gpsLat	700	1000	1000	1000	1000
54	2019-06-05	15:17:44	41.015625	-17.58575439453125	-62.50762939453125	-1.025634765625	1.435302734375	1.87158203125	1.704	1.736	-6.732	N	1.7640920077374085	2.041084181905939	0.4823946679176654	N	gpsLong	gpsLat	700	1000	1000	1000	1000
55	2019-06-05	15:17:44	-17.58575439453125	-7.82012939453125	-82.03887939453125	-0.359619140625	1.99993896484375	0.997314453125	3.452	1.278	-6.473	N	2.0320142197839446	-1.7485331873989773	0.45842697206572636	N	gpsLong	gpsLat	700	1000	1000	1000	1000
56	2019-06-05	15:17:44	44.921875	11.71875	-52.74200439453125	1.174560546875	1.5830078125	0.844970703125	2.932	3.023	-6.292	N	1.9711687428303377	0.5199377072743041	-1.7453659462190285	W	gpsLong	gpsLat	700	1000	1000	1000	1000
57	2019-06-05	15:17:44	-5.86700439453125	33.203125	-41.02325439453125	1.013916015625	0.265380859375	0.131103515625	-1.073	1.716	-5.992	N	1.0480709361791734	4.005857362761732	1.3072186640936463	N	gpsLong	gpsLat	700	1000	1000	1000	1000
58	2019-06-05	15:17:44	-5.86700439453125	56.640625	-41.02325439453125	-1.523681640625	0.22607421875	1.74560546875	6.283	-0.372	-5.71	N	1.5403620659965354	-7.356587878036057	2.0876664024257594	N	gpsLong	gpsLat	700	1000	1000	1000	1000
59	2019-06-05	15:17:44	13.671875	-17.58575439453125	-39.07012939453125	0.15234375	0.97119140625	0.94970703125	11.601	2.665	-5.702	N	0.9830673251298281	-5.317448339006551	-3.0367425720548167	S	gpsLong	gpsLat	700	1000	1000	1000	1000
60	2019-06-05	15:17:45	207.03125	54.6875	-80.08575439453125	-0.734619140625	1.413818359375	0.633544921875	12.685	0.021	-5.324	N	1.5932820324972068	-1.0846698716649588	2.64339703460411	S	gpsLong	gpsLat	700	1000	1000	1000	1000
61	2019-06-05	15:17:45	-189.453125	19.53125	-72.27325439453125	1.453125	0.267578125	0.035400390625	14.593	2.652	-5.384	N	1.477555521326869	-1.9076929654049017	-2.6303667972306672	S	gpsLong	gpsLat	700	1000	1000	1000	1000
62	2019-06-05	15:17:45	-107.42950439453125	62.5	-101.57012939453125	0.042724609375	-1.41064453125	0.7861328125	13.626	-0.008	-4.901	N	1.4112913893990067	0.9667135769392097	2.6598056329164352	N	gpsLong	gpsLat	700	1000	1000	1000	1000
63	2019-06-05	15:17:45	107.41424560546875	-130.86700439453125	-93.75762939453125	-0.964599609375	0.224609375	1.599365234375	10.354	0.973	-4.896	N	0.9904048554728986	3.2719436559604986	-0.9807521481879499	W	gpsLong	gpsLat	700	1000	1000	1000	1000
64	2019-06-05	15:17:45	-91.78924560546875	-238.28887939453125	-136.72637939453125	-2.0	-0.617431640625	1.99993896484375	7.379	3.352	-4.258	N	2.0931368399712618	2.974985409510876	-2.379518249539238	W	gpsLong	gpsLat	700	1000	1000	1000	1000
65	2019-06-05	15:17:45	-185.546875	-171.8902587890625	-35.16387939453125	-2.0	-1.0068359375	1.244140625	6.952	-1.078	-3.982	N	2.239133449583009	0.427598785691643	4.4298135096353715	N	gpsLong	gpsLat	700	1000	1000	1000	1000
66	2019-06-05	15:17:45	-158.21075439453125	-234.375	-21.49200439453125	0.432373046875	-1.7607421875	0.342041015625	12.519	3.105	-4.283	N	1.8130525371610873	-5.567140991475845	-4.182105293280262	S	gpsLong	gpsLat	700	1000	1000	1000	1000
67	2019-06-05	15:17:46	-228.515625	-5.86700439453125	-54.69512939453125	-1.57861328125	-0.087158203125	1.8681640625	10.019	0.884	-4.049	N	1.5810175344096822	2.500247662068398	2.2202217761895664	N	gpsLong	gpsLat	700	1000	1000	1000	1000
68	2019-06-05	15:17:46	-132.8125	-78.13262939453125	-78.13262939453125	1.037841796875	0.380126953125	0.260498046875	14.392	0.864	-3.796	N	1.1052656222975654	-4.373017425683349	0.02009308253589659	SE	gpsLong	gpsLat	700	1000	1000	1000	1000
69	2019-06-05	15:17:46	-105.46112060546875	-130.86700439453125	-82.03887939453125	-1.1123046875	-0.36572265625	1.87744140625	14.717	-0.597	-3.375	N	1.1708863220351617	-0.3250199762230146	1.4609574257925697	SE	gpsLong	gpsLat	700	1000	1000	1000	1000
70	2019-06-05	15:17:46	-195.38116455078125	115.18096923828125	236.32049560546875	-1.62548828125	0.93896484375	1.3076171875	8.716	-4.865	-2.852	N	1.8771966147102281	6.000887300703006	4.267969353738649	N	gpsLong	gpsLat	700	1000	1000	1000	1000
71	2019-06-05	15:17:46	29.296875	-21.4996337890625	-125.00762939453125	1.99993896484375	1.400390625	0.18359375	13.301	-3.78	-2.476	N	2.441485155737831	-4.5850910878468145	-1.084752340428481	S	gpsLong	gpsLat	700	1000	1000	1000	1000
72	2019-06-05	15:17:46	-60.55450439453125	-15.63262939453125	-35.16387939453125	-1.91650390625	-0.307861328125	1.6083984375	3.835	-6.633	-2.23	N	1.9410733680173962	9.465633215928799	2.853381228278252	N	gpsLong	gpsLat	700	1000	1000	1000	1000
73	2019-06-05	15:17:47	-78.13262939453125	-105.46875	-56.64825439453125	1.834228515625	-0.367919921875	0.904296875	3.593	-8.443	-2.139	N	1.8707643668950926	0.24197267255583998	1.809514595454929	N	gpsLong	gpsLat	700	1000	1000	1000	1000
74	2019-06-05	15:17:47	-99.609375	42.96875	-89.85137939453125	-0.1533203125	0.431640625	1.200927734375	6.375	-1.845	-2.007	N	0.4580619470939365	-2.782116762280632	-6.59734079556346	S	gpsLong	gpsLat	700	1000	1000	1000	1000
75	2019-06-05	15:17:47	23.4375	-179.69512939453125	-93.75762939453125	-0.1826171875	-0.33642578125	1.063232421875	10.855	1.535	-1.826	N	0.3827941267314364	-4.479983667664427	-3.380031279217607	S	gpsLong	gpsLat	700	1000	1000	1000	1000
76	2019-06-05	15:17:47	201.16424560546875	-74.21875	-37.11700439453125	0.51171875	1.99993896484375	1.025390625	12.386	-0.73	-1.448	N	2.064367201396557	-1.5301800324536465	2.2650034567944117	S	gpsLong	gpsLat	700	1000	1000	1000	1000
77	2019-06-05	15:17:47	-31.25762939453125	-173.83575439453125	-169.92950439453125	1.99993896484375	1.8515625	0.672119140625	9.058	0.176	-1.154	N	2.7254430015148987	3.327238618882774	-0.9063527951927186	W	gpsLong	gpsLat	700	1000	1000	1000	1000
78	2019-06-05	15:17:47	212.890625	-117.19512939453125	-56.64825439453125	-0.8447265625	1.046630859375	1.904541015625	11.923	0.271	-0.706	N	1.3449903795898013	-2.8647250416634744	-0.09536465247989734	S	gpsLong	gpsLat	700	1000	1000	1000	1000
79	2019-06-05	15:17:47	-185.55450439453125	-240.234375	-42.97637939453125	1.1640625	1.99993896484375	1.070068359375	8.504	0.952	-0.573	N	2.314043510180079	3.419087380412213	-0.6810833285518499	W	gpsLong	gpsLat	700	1000	1000	1000	1000
