#	dia(1)	hora(1)	gyroX	gyroY	gyroZ	accelX	accelY	accelZ	roll	pitch	yaw	brujula	vientoFG	varianzaRoll	varianzaPitch	direccion	gpsLong	gpsLat	altime	motores(4)	motores(4)	motores(4)	motores(4)
0	2019-06-09	11:53:46	-19.53887939453125	-15.63262939453125	-76.17950439453125	1.074951171875	0.306884765625	0.1494140625	2.586	5.247	-3.71	N	1.11789904789661	0	0	null	gpsLong	gpsLat	700	1000	1000	1000	1000
1	2019-06-09	11:53:46	-111.33575439453125	101.5625	-31.25762939453125	-0.479248046875	0.52587890625	1.271728515625	-3.736	0.685	-3.549	N	0.7114965315953399	6.322030016350082	4.561932300187965	N	gpsLong	gpsLat	700	1000	1000	1000	1000
2	2019-06-09	11:53:46	169.921875	-105.47637939453125	-87.89825439453125	1.15283203125	0.287109375	-0.183349609375	-2.789	2.378	-3.361	N	1.1880460788575886	-0.9472118783590786	-1.6928324359695797	S	gpsLong	gpsLat	700	1000	1000	1000	1000
3	2019-06-09	11:53:47	136.71875	33.203125	-132.82012939453125	1.621337890625	-0.68359375	0.5751953125	-2.84	-0.339	-3.171	N	1.7595559015318005	0.05037603607457042	2.7168995705906474	S	gpsLong	gpsLat	700	1000	1000	1000	1000
4	2019-06-09	11:53:47	66.40625	46.875	-101.57012939453125	-0.020751953125	0.80517578125	1.346435546875	3.465	-2.075	-2.811	N	0.8054431589318082	-6.304192847189176	1.735548951923256	S	gpsLong	gpsLat	700	1000	1000	1000	1000
5	2019-06-09	11:53:47	35.15625	-39.07012939453125	-109.38262939453125	-0.402099609375	-1.51611328125	0.7626953125	0.51	-6.71	-2.383	N	1.568529112717443	2.9545806840255127	4.634971416573116	N	gpsLong	gpsLat	700	1000	1000	1000	1000
6	2019-06-09	11:53:47	132.8125	68.359375	-87.89825439453125	1.99993896484375	-1.17626953125	-0.594482421875	-0.662	-5.645	-2.035	N	2.320208152999938	1.171640854336927	-1.0643782792049663	W	gpsLong	gpsLat	700	1000	1000	1000	1000
7	2019-06-09	11:53:47	60.546875	9.765625	-138.67950439453125	1.162109375	0.11376953125	0.73486328125	-1.677	-3.253	-1.662	N	1.167665065720361	1.0150979831241211	-2.3926324055332207	W	gpsLong	gpsLat	700	1000	1000	1000	1000
8	2019-06-09	11:53:47	50.78125	42.96875	-144.53887939453125	-2.0	0.15185546875	1.99993896484375	-0.874	-5.267	-1.234	N	2.0057567358454222	-0.8025542332668837	2.014295812623739	W	gpsLong	gpsLat	700	1000	1000	1000	1000
9	2019-06-09	11:53:47	191.40625	-72.27325439453125	-132.82012939453125	0.0166015625	-1.574951171875	1.012451171875	-5.334	-2.588	-0.765	N	1.5750386679913218	4.459560304281686	-2.6786911250794327	W	gpsLong	gpsLat	700	1000	1000	1000	1000
10	2019-06-09	11:53:48	-140.63262939453125	85.9375	-115.24200439453125	1.586181640625	-0.91845703125	-0.011962890625	-5.414	-0.237	-0.298	N	1.832903575016531	0.08072915355604682	-2.351102392198456	SW	gpsLong	gpsLat	700	1000	1000	1000	1000
11	2019-06-09	11:53:48	103.515625	66.40625	-80.08575439453125	-0.783447265625	-0.599365234375	1.277099609375	-4.699	3.097	0.071	N	0.9864219696421446	-0.7151313303822722	-3.334122241457838	S	gpsLong	gpsLat	700	1000	1000	1000	1000
12	2019-06-09	11:53:48	76.171875	-140.63262939453125	-93.75762939453125	-0.533203125	0.85693359375	1.481201171875	1.495	2.16	0.311	N	1.00927734375	-6.194175352581053	0.9370514899341007	S	gpsLong	gpsLat	700	1000	1000	1000	1000
13	2019-06-09	11:53:48	85.9375	41.015625	-74.22637939453125	1.868408203125	1.1767578125	0.335693359375	-3.04	0.752	0.74	N	2.208100578049962	4.535328644605339	1.4076994460893415	N	gpsLong	gpsLat	700	1000	1000	1000	1000
14	2019-06-09	11:53:48	-11.72637939453125	-80.08575439453125	-50.78887939453125	0.072509765625	0.992919921875	1.625732421875	1.413	3.754	0.954	N	0.9955639795448852	-4.453825346116856	-3.0017675582601533	S	gpsLong	gpsLat	700	1000	1000	1000	1000
15	2019-06-09	11:53:48	5.859375	101.5625	-25.39825439453125	0.845703125	-1.381591796875	0.72607421875	0.506	2.816	1.184	N	1.6198795229359055	0.9073080600840032	0.9377508595758219	N	gpsLong	gpsLat	700	1000	1000	1000	1000
16	2019-06-09	11:53:49	-1.96075439453125	-1.96075439453125	-62.50762939453125	0.88720703125	0.13671875	0.2236328125	5.951	2.552	1.258	N	0.8976794154379396	-5.445300307982767	0.2640173986576677	N	gpsLong	gpsLat	700	1000	1000	1000	1000
17	2019-06-09	11:53:49	19.53125	21.484375	-83.99200439453125	1.705810546875	-1.279052734375	-0.1181640625	-0.397	0.046	1.647	N	2.1320800921030503	6.348842181540851	2.5056049368595845	N	gpsLong	gpsLat	700	1000	1000	1000	1000
18	2019-06-09	11:53:49	-83.99200439453125	5.859375	-119.14825439453125	0.30859375	0.321533203125	1.146728515625	1.542	2.494	1.96	N	0.4456609734438108	-1.9389995206613948	-2.4478440350451027	S	gpsLong	gpsLat	700	1000	1000	1000	1000
19	2019-06-09	11:53:49	125.0	-33.21075439453125	-91.80450439453125	-1.494873046875	-1.9921875	1.19677734375	3.737	-0.714	2.369	N	2.4906738970466598	-2.1956702631806686	3.208051494706538	S	gpsLong	gpsLat	700	1000	1000	1000	1000
20	2019-06-09	11:53:49	1.953125	-62.50762939453125	-128.91387939453125	-1.21337890625	-0.593017578125	1.616455078125	-4.528	0.218	2.664	N	1.3505399727878056	8.265410106460209	-0.9315699406120974	W	gpsLong	gpsLat	700	1000	1000	1000	1000
21	2019-06-09	11:53:49	-39.07012939453125	56.640625	-144.53887939453125	-0.5634765625	0.32958984375	1.584228515625	-5.241	1.165	3.114	N	0.6527903963677513	0.7124811345892788	-0.9473009170460133	W	gpsLong	gpsLat	700	1000	1000	1000	1000
22	2019-06-09	11:53:49	74.21875	-62.50762939453125	-132.82012939453125	-1.0166015625	0.22900390625	1.6220703125	-4.3	2.087	3.574	N	1.0420755855288042	-0.9409131667757409	-0.9218841972410989	S	gpsLong	gpsLat	700	1000	1000	1000	1000
23	2019-06-09	11:53:50	-52.74200439453125	146.484375	-83.99200439453125	1.774169921875	1.668701171875	0.38916015625	0.04	5.412	3.988	N	2.4356195336511286	-4.339655124515492	-3.324866667292599	S	gpsLong	gpsLat	700	1000	1000	1000	1000
24	2019-06-09	11:53:50	-13.67950439453125	-56.64825439453125	-222.66387939453125	0.4453125	-0.912353515625	0.31787109375	1.365	6.745	4.372	N	1.0152301020603887	-1.325059095040564	-1.3329725067647393	S	gpsLong	gpsLat	700	1000	1000	1000	1000
25	2019-06-09	11:53:50	111.328125	9.765625	-203.13262939453125	-0.386962890625	1.1318359375	1.684814453125	2.908	6.839	4.906	N	1.1961575431929357	-1.5428303422254852	-0.09443487757093028	S	gpsLong	gpsLat	700	1000	1000	1000	1000
26	2019-06-09	11:53:50	-166.02325439453125	-115.24200439453125	39.0625	-1.44140625	-0.017822265625	1.332275390625	2.614	5.362	5.08	N	1.4415164274787404	0.29389812008777616	1.4769358759010922	N	gpsLong	gpsLat	700	1000	1000	1000	1000
27	2019-06-09	11:53:50	220.703125	226.5625	-48.83575439453125	-0.833740234375	-0.9658203125	1.32666015625	1.255	3.28	5.093	N	1.275904249719891	1.3591539970416708	2.0825667311014864	N	gpsLong	gpsLat	700	1000	1000	1000	1000
28	2019-06-09	11:53:50	-105.47637939453125	-171.88262939453125	-42.97637939453125	-1.47509765625	-0.294677734375	1.99993896484375	1.064	0.801	5.27	N	1.5042433521909366	0.19036996053734034	2.47893939411652	N	gpsLong	gpsLat	700	1000	1000	1000	1000
29	2019-06-09	11:53:50	156.24237060546875	-13.67950439453125	-199.22637939453125	-0.021240234375	-1.6806640625	0.80908203125	0.853	1.315	5.614	N	1.6807982741945295	0.21111338560273651	-0.5138600998803441	W	gpsLong	gpsLat	700	1000	1000	1000	1000
30	2019-06-09	11:53:51	25.390625	56.640625	-154.30450439453125	-1.8896484375	1.380859375	1.99993896484375	0.715	0.437	6.116	N	2.3404153116213333	0.13812253457979584	0.8778054084508782	N	gpsLong	gpsLat	700	1000	1000	1000	1000
31	2019-06-09	11:53:51	-78.13262939453125	23.4375	-66.41387939453125	-1.55419921875	1.99993896484375	1.99993896484375	1.252	0.43	6.371	N	2.532842489114434	-0.5364842058592654	0.006636367513603636	SE	gpsLong	gpsLat	700	1000	1000	1000	1000
32	2019-06-09	11:53:51	64.453125	158.203125	11.71875	0.551513671875	1.99993896484375	0.63427734375	2.182	1.173	6.481	N	2.074589885583494	-0.9305021801549445	-0.7430948454831448	S	gpsLong	gpsLat	700	1000	1000	1000	1000
33	2019-06-09	11:53:51	11.71875	56.640625	107.421875	1.70751953125	0.688232421875	-0.369140625	1.532	1.869	6.374	N	1.8410015796082706	0.649807404935399	-0.6961286940141547	W	gpsLong	gpsLat	700	1000	1000	1000	1000
34	2019-06-09	11:53:51	15.625	-39.07012939453125	115.234375	1.99993896484375	-1.85595703125	-1.135498046875	2.198	2.885	6.157	N	2.7284303848452143	-0.6652828512089921	-1.0158199385534534	S	gpsLong	gpsLat	700	1000	1000	1000	1000
35	2019-06-09	11:53:51	-27.35137939453125	56.640625	111.328125	1.329345703125	-0.565185546875	0.088134765625	2.08	2.271	5.954	N	1.4445050020035561	0.11757351311342745	0.6137730705818498	N	gpsLong	gpsLat	700	1000	1000	1000	1000
36	2019-06-09	11:53:51	82.03125	125.0	7.8125	1.99993896484375	0.612548828125	-0.029296875	1.639	2.735	5.877	N	2.091643356296097	0.44098811018059414	-0.46316555124578285	W	gpsLong	gpsLat	700	1000	1000	1000	1000
37	2019-06-09	11:53:52	-37.11700439453125	-31.25762939453125	-72.27325439453125	-2.0	-0.362060546875	1.99993896484375	1.368	2.641	6.011	N	2.0325077711052972	0.2705188440824102	0.09401057005726932	N	gpsLong	gpsLat	700	1000	1000	1000	1000
38	2019-06-09	11:53:52	37.109375	64.453125	-35.16387939453125	0.656494140625	-1.61962890625	0.39697265625	0.28	3.91	6.145	N	1.7476219129535795	1.0886132864366074	-1.269390990947711	W	gpsLong	gpsLat	700	1000	1000	1000	1000
39	2019-06-09	11:53:52	-37.11700439453125	91.796875	-48.83575439453125	-1.67138671875	0.7119140625	1.99993896484375	5.461	2.331	6.272	N	1.8166879743090572	-5.181613542403746	1.5786363371120218	W	gpsLong	gpsLat	700	1000	1000	1000	1000
40	2019-06-09	11:53:52	210.9375	-25.39825439453125	-39.07012939453125	-0.953857421875	-0.97412109375	1.44482421875	-0.437	0.607	6.573	N	1.3633619792830949	5.898490350174096	1.7248606497213765	N	gpsLong	gpsLat	700	1000	1000	1000	1000
41	2019-06-09	11:53:52	150.38299560546875	-29.30450439453125	-89.85137939453125	1.99993896484375	0.93017578125	-0.402099609375	-4.484	0.919	6.768	N	2.205670611656314	4.047184955884191	-0.31243852977633346	W	gpsLong	gpsLat	700	1000	1000	1000	1000
42	2019-06-09	11:53:52	25.390625	60.546875	-74.22637939453125	-2.0	0.312255859375	1.99993896484375	2.497	1.945	7.053	N	2.024229167291594	-6.980875832957404	-1.0259433167356102	S	gpsLong	gpsLat	700	1000	1000	1000	1000
43	2019-06-09	11:53:52	0.0	1.953125	-37.11700439453125	-0.55224609375	0.218994140625	1.035400390625	-0.5	-0.606	7.272	N	0.5940826387719271	2.9970674258363754	2.5509122831569138	N	gpsLong	gpsLat	700	1000	1000	1000	1000
44	2019-06-09	11:53:53	1.953125	-7.82012939453125	-148.44512939453125	-1.53173828125	1.99993896484375	1.99993896484375	2.585	1.235	7.583	N	2.5191224712877687	-3.0857935755047987	-1.8412663603163757	S	gpsLong	gpsLat	700	1000	1000	1000	1000
45	2019-06-09	11:53:53	37.109375	91.796875	-146.49200439453125	0.499267578125	-2.0	0.371826171875	0.831	0.08	8.048	N	2.0613752968750747	1.7546272648761994	1.154966073033761	N	gpsLong	gpsLat	700	1000	1000	1000	1000
46	2019-06-09	11:53:53	0.0	-5.86700439453125	-46.88262939453125	-0.2587890625	0.895751953125	1.017333984375	-3.23	0.389	8.334	N	0.9323858323660228	4.061225457774869	-0.30833905315637294	W	gpsLong	gpsLat	700	1000	1000	1000	1000
47	2019-06-09	11:53:53	-7.82012939453125	-113.28887939453125	-42.97637939453125	-1.24462890625	-1.124267578125	1.689208984375	-6.609	-0.252	8.362	N	1.6772235097017107	3.379004592669215	0.6402748924678974	N	gpsLong	gpsLat	700	1000	1000	1000	1000
48	2019-06-09	11:53:53	21.484375	-15.63262939453125	-83.99200439453125	-2.0	0.712158203125	1.99993896484375	-5.737	-0.552	8.493	N	2.123009492743315	-0.8728172664801512	0.3003915650524802	N	gpsLong	gpsLat	700	1000	1000	1000	1000
49	2019-06-09	11:53:53	-7.82012939453125	37.109375	-83.99200439453125	-2.0	0.28759765625	1.99993896484375	-4.246	-0.817	8.729	N	2.0205722981077647	-1.4910329118396524	0.2648883777853852	N	gpsLong	gpsLat	700	1000	1000	1000	1000
50	2019-06-09	11:53:53	-113.28887939453125	136.71875	-91.80450439453125	-1.42578125	-0.222412109375	1.99993896484375	-3.177	-1.24	8.934	N	1.4430243654381583	-1.0686389113192343	0.42355561113054285	N	gpsLong	gpsLat	700	1000	1000	1000	1000
51	2019-06-09	11:53:54	50.78125	-46.88262939453125	-87.89825439453125	-0.767578125	-1.820068359375	1.99993896484375	-3.514	0.919	9.242	N	1.9753037768344694	0.3373850400714238	-2.159261909719497	W	gpsLong	gpsLat	700	1000	1000	1000	1000
52	2019-06-09	11:53:54	74.21875	87.890625	-64.46075439453125	1.99993896484375	0.11474609375	-0.88427734375	-0.999	-0.252	9.469	N	2.0032280272428236	-2.5151166724689773	1.1704365251102375	W	gpsLong	gpsLat	700	1000	1000	1000	1000
53	2019-06-09	11:53:54	-41.03851318359375	-21.49200439453125	91.796875	0.063720703125	0.150146484375	1.48974609375	-1.286	-1.109	9.561	N	0.16310823025499513	0.2871480961910404	0.8578338036184543	N	gpsLong	gpsLat	700	1000	1000	1000	1000
54	2019-06-09	11:53:54	-33.2183837890625	-113.28887939453125	199.21875	-0.012451171875	1.626708984375	1.40966796875	-5.706	-0.003	9.102	N	1.6267566356180647	4.419392220035727	-1.106766795877313	W	gpsLong	gpsLat	700	1000	1000	1000	1000
55	2019-06-09	11:53:54	101.55487060546875	-25.39825439453125	35.15625	-2.0	-1.233154296875	1.99993896484375	-8.729	-1.677	8.721	N	2.3496105038710726	3.0236797420660375	1.6739883083928977	N	gpsLong	gpsLat	700	1000	1000	1000	1000
56	2019-06-09	11:53:54	185.53924560546875	-0.00762939453125	-19.53887939453125	-1.496826171875	1.01318359375	1.99993896484375	-8.65	-2.099	8.657	N	1.8074926233470863	-0.07928158837563792	0.4224429313750644	N	gpsLong	gpsLat	700	1000	1000	1000	1000
57	2019-06-09	11:53:54	-74.2340087890625	15.625	-68.36700439453125	-1.578369140625	-1.99072265625	1.85107421875	-10.497	0.347	8.897	N	2.5405168446960467	1.8468528768263628	-2.446520330578127	W	gpsLong	gpsLat	700	1000	1000	1000	1000
58	2019-06-09	11:53:55	-160.16387939453125	66.40625	-52.74200439453125	-0.3505859375	-0.272216796875	1.289306640625	-8.59	2.031	9.227	N	0.4438608836940229	-1.9073494795802972	-1.6838952386410635	S	gpsLong	gpsLat	700	1000	1000	1000	1000
59	2019-06-09	11:53:55	41.015625	103.515625	-21.49200439453125	-0.12646484375	-0.093505859375	1.053466796875	-7.497	-1.491	9.124	N	0.1572790591342954	-1.0925039691235687	3.5227358817993917	S	gpsLong	gpsLat	700	1000	1000	1000	1000
60	2019-06-09	11:53:55	-156.25762939453125	56.640625	-13.67950439453125	1.7998046875	1.532470703125	0.04345703125	-2.34	3.318	9.476	N	2.3638450391435146	-5.157042183349832	-4.8090905122204015	S	gpsLong	gpsLat	700	1000	1000	1000	1000
61	2019-06-09	11:53:55	46.875	25.390625	-7.82012939453125	0.678466796875	0.569091796875	0.751953125	-7.33	2.495	9.425	N	0.8855408899267379	4.990189192957128	0.8229676978530609	N	gpsLong	gpsLat	700	1000	1000	1000	1000
62	2019-06-09	11:53:55	-1.96075439453125	54.6875	56.640625	0.907958984375	-0.40625	0.055419921875	-14.195	-0.591	8.984	N	0.9947002462085156	6.864815167199264	3.0855808370309608	N	gpsLong	gpsLat	700	1000	1000	1000	1000
63	2019-06-09	11:53:55	199.22637939453125	-17.58575439453125	35.15625	-2.0	0.181884765625	1.99993896484375	-14.676	-0.702	8.934	N	2.008253486979784	0.4809877665662974	0.11087061875553639	N	gpsLong	gpsLat	700	1000	1000	1000	1000
64	2019-06-09	11:53:56	78.1402587890625	23.4375	1.953125	-0.512939453125	-1.707763671875	1.352783203125	-8.859	0.061	9.243	N	1.7831330969807488	-5.816966069457228	-0.7625154898539561	S	gpsLong	gpsLat	700	1000	1000	1000	1000
65	2019-06-09	11:53:56	228.50799560546875	7.8125	-1.96075439453125	-0.15771484375	0.962646484375	1.204833984375	-6.567	-1.81	9.231	N	0.9754805102197758	-2.2924226476854477	1.8707178989055313	S	gpsLong	gpsLat	700	1000	1000	1000	1000
66	2019-06-09	11:53:56	62.5	-121.10137939453125	-15.63262939453125	1.99993896484375	0.351806640625	-0.620361328125	-3.24	-0.558	9.326	N	2.030646147286163	-3.3271007746519317	-1.2517976270101805	S	gpsLong	gpsLat	700	1000	1000	1000	1000
67	2019-06-09	11:53:56	66.39862060546875	-37.11700439453125	62.5	1.99993896484375	0.411865234375	-0.116943359375	-4.996	-0.927	9.307	N	2.0419081356385904	1.7561042031119776	0.3685742226990625	N	gpsLong	gpsLat	700	1000	1000	1000	1000
68	2019-06-09	11:53:56	173.82049560546875	-62.50762939453125	31.25	-0.369140625	0.168701171875	1.404541015625	-3.246	1.991	9.313	N	0.4058631375444054	-1.7497812081915733	-2.9176402442863507	S	gpsLong	gpsLat	700	1000	1000	1000	1000
69	2019-06-09	11:53:56	-166.02325439453125	11.71875	-0.00762939453125	-2.0	-0.72119140625	1.99993896484375	-9.264	-0.609	9.068	N	2.126056688907625	6.01792730132993	2.6003124895942906	N	gpsLong	gpsLat	700	1000	1000	1000	1000
70	2019-06-09	11:53:56	-72.25799560546875	89.84375	33.203125	0.83056640625	0.4150390625	0.631591796875	-2.686	-0.529	9.172	N	0.9284923147726744	-6.577864041814114	-0.08038611060044099	SE	gpsLong	gpsLat	700	1000	1000	1000	1000
71	2019-06-09	11:53:57	-208.984375	97.65625	29.296875	1.265869140625	0.19482421875	0.9091796875	-3.239	1.0	9.226	N	1.2807736558027043	0.5528542024362109	-1.5295197520771988	W	gpsLong	gpsLat	700	1000	1000	1000	1000
72	2019-06-09	11:53:57	222.65625	-101.57012939453125	113.28125	-1.376953125	-1.0419921875	1.99993896484375	-0.354	1.204	9.039	N	1.7267737626157924	-2.8849838109608656	-0.20317040659247554	S	gpsLong	gpsLat	700	1000	1000	1000	1000
73	2019-06-09	11:53:57	29.296875	39.0625	33.203125	0.82177734375	-1.06787109375	0.5048828125	-0.175	-0.256	8.94	N	1.34746676232389	-0.17915660505328218	1.4593504574827474	S	gpsLong	gpsLat	700	1000	1000	1000	1000
74	2019-06-09	11:53:57	23.4375	3.90625	-160.16387939453125	-0.39013671875	-1.791259765625	0.32666015625	0.927	0.473	9.203	N	1.8332534487255019	-1.1017161797461454	-0.7289911723851529	S	gpsLong	gpsLat	700	1000	1000	1000	1000
75	2019-06-09	11:53:57	66.40625	0.0	-166.02325439453125	0.307861328125	-1.690185546875	0.170654296875	-1.162	1.177	9.675	N	1.7179946973783218	2.088604969588065	-0.7037794472275177	W	gpsLong	gpsLat	700	1000	1000	1000	1000
76	2019-06-09	11:53:57	50.78125	85.9375	-169.92950439453125	-0.724365234375	1.036376953125	1.99993896484375	0.91	0.598	10.115	N	1.2644295874977804	-2.0711717285984403	0.579162443012502	W	gpsLong	gpsLat	700	1000	1000	1000	1000
77	2019-06-09	11:53:57	-48.83575439453125	46.875	-175.78887939453125	-1.260986328125	-0.511474609375	0.61669921875	-5.587	-0.691	10.451	N	1.3607691926823884	6.496361614336101	1.2892372976370345	N	gpsLong	gpsLat	700	1000	1000	1000	1000
78	2019-06-09	11:53:58	91.796875	3.90625	-156.25762939453125	-0.824462890625	-1.094482421875	0.962890625	-7.773	0.827	10.792	N	1.370266700248932	2.1864014181517364	-1.5179104879781042	W	gpsLong	gpsLat	700	1000	1000	1000	1000
79	2019-06-09	11:53:58	-19.53887939453125	-37.11700439453125	-146.49200439453125	0.476318359375	1.99993896484375	0.884765625	-1.154	-3.902	10.957	N	2.0558781682234923	-6.619095215312047	4.728496442176783	W	gpsLong	gpsLat	700	1000	1000	1000	1000
80	2019-06-09	11:53:58	-9.77325439453125	-13.67950439453125	-121.10137939453125	-1.034912109375	-1.2255859375	0.646484375	-0.355	-1.748	11.258	NE	1.604089761930038	-0.7991134447425461	-2.153965886339872	S	gpsLong	gpsLat	700	1000	1000	1000	1000
81	2019-06-09	11:53:58	82.03125	156.25	-78.13262939453125	0.5068359375	1.737060546875	1.09521484375	6.111	-3.054	11.464	NE	1.8094921970130675	-6.465895618336828	1.3055364904049624	S	gpsLong	gpsLat	700	1000	1000	1000	1000
82	2019-06-09	11:53:58	105.46875	-0.00762939453125	-72.27325439453125	-0.088134765625	0.052978515625	1.01318359375	9.822	0.642	11.316	NE	0.1028321935465837	-3.7110220828111453	-3.6957685685565123	S	gpsLong	gpsLat	700	1000	1000	1000	1000
83	2019-06-09	11:53:58	13.671875	-9.77325439453125	-91.80450439453125	1.99993896484375	-1.028076171875	-0.146728515625	10.662	0.067	11.61	NE	2.2487099586824097	-0.8403968295451225	0.5752518140888303	S	gpsLong	gpsLat	700	1000	1000	1000	1000
84	2019-06-09	11:53:58	66.40625	-23.44512939453125	-42.97637939453125	0.233154296875	-0.711181640625	0.42919921875	9.5	-2.267	12.046	NE	0.7484251813730898	1.162536055012346	2.3345086138368067	N	gpsLong	gpsLat	700	1000	1000	1000	1000
85	2019-06-09	11:53:59	52.734375	60.546875	-29.30450439453125	-0.1376953125	-1.279296875	1.247314453125	8.218	-1.699	12.177	NE	1.2866858565591053	1.282091304450237	-0.5681487693840281	W	gpsLong	gpsLat	700	1000	1000	1000	1000
86	2019-06-09	11:53:59	25.390625	25.390625	-46.88262939453125	-0.05810546875	1.5634765625	1.31005859375	10.542	0.044	12.141	NE	1.5645559136654317	-2.3247614090508435	-1.7435132353418046	S	gpsLong	gpsLat	700	1000	1000	1000	1000
87	2019-06-09	11:53:59	-41.02325439453125	7.8125	-87.89825439453125	0.950439453125	-0.8916015625	0.39697265625	8.976	-3.659	12.752	NE	1.3031839855941256	1.5662032721221628	3.7029416604517786	N	gpsLong	gpsLat	700	1000	1000	1000	1000
88	2019-06-09	11:53:59	83.984375	-27.35137939453125	-89.85137939453125	1.46337890625	-0.51708984375	0.07177734375	1.45	-1.049	13.121	NE	1.5520501698614146	7.525823128775079	-2.609833606355595	W	gpsLong	gpsLat	700	1000	1000	1000	1000
89	2019-06-09	11:53:59	115.234375	95.703125	-80.08575439453125	-1.336181640625	-2.0	0.7548828125	1.837	-2.296	13.486	NE	2.405281974476863	-0.38709373245220813	1.2468881222908708	W	gpsLong	gpsLat	700	1000	1000	1000	1000
90	2019-06-09	11:53:59	29.296875	-123.05450439453125	-64.46075439453125	0.537841796875	1.606689453125	1.159912109375	1.529	3.73	13.715	NE	1.694321338249873	0.30799947524420235	-6.026295718251908	W	gpsLong	gpsLat	700	1000	1000	1000	1000
91	2019-06-09	11:53:59	85.9375	117.1875	41.015625	-0.252685546875	-2.0	0.64599609375	-1.099	2.115	13.856	NE	2.0158992994689786	2.6288123247537682	1.6153142159121767	N	gpsLong	gpsLat	700	1000	1000	1000	1000
92	2019-06-09	11:54:00	-232.421875	25.390625	7.8125	1.4091796875	0.828125	0.717529296875	1.143	8.941	13.952	NE	1.6344963772635281	-2.2418718106702054	-6.825521430319975	S	gpsLong	gpsLat	700	1000	1000	1000	1000
93	2019-06-09	11:54:00	-31.25762939453125	99.609375	-52.74200439453125	0.127685546875	-1.781005859375	0.326904296875	3.563	5.366	14.147	NE	1.7855770691876758	-2.420811766404313	3.5744786120410676	S	gpsLong	gpsLat	700	1000	1000	1000	1000
94	2019-06-09	11:54:00	70.3125	-23.44512939453125	-78.13262939453125	-0.82763671875	0.91064453125	1.562744140625	2.521	7.695	14.448	NE	1.2305510962649209	1.0428083048509023	-2.3286095540518206	W	gpsLong	gpsLat	700	1000	1000	1000	1000
95	2019-06-09	11:54:00	19.53125	72.265625	-58.60137939453125	-1.748046875	-2.0	1.29931640625	2.99	1.755	14.791	NE	2.656250718060565	-0.46910556972379425	5.9398566848818195	W	gpsLong	gpsLat	700	1000	1000	1000	1000
96	2019-06-09	11:54:00	19.53125	-33.21075439453125	-13.67950439453125	-0.340576171875	0.188232421875	1.7353515625	-2.087	-0.739	14.934	NE	0.3891318202023031	5.076438771861839	2.4936023854553717	N	gpsLong	gpsLat	700	1000	1000	1000	1000
97	2019-06-09	11:54:00	83.984375	25.390625	-62.50762939453125	-0.029296875	-0.75	0.4365234375	-4.109	-3.819	14.952	NE	0.7505719864774901	2.02231389291294	3.0806618765416296	N	gpsLong	gpsLat	700	1000	1000	1000	1000
98	2019-06-09	11:54:00	-3.91387939453125	13.671875	-33.21075439453125	-0.341064453125	-0.251220703125	0.55712890625	-6.282	-7.672	14.995	NE	0.4235998145231826	2.1728891128128964	3.852496555500154	N	gpsLong	gpsLat	700	1000	1000	1000	1000
99	2019-06-09	11:54:01	-48.83575439453125	-52.74200439453125	17.578125	-2.0	0.294677734375	1.99993896484375	-7.423	-6.195	15.144	NE	2.0215921861583217	1.141506411583868	-1.4770443494459506	W	gpsLong	gpsLat	700	1000	1000	1000	1000
100	2019-06-09	11:54:01	136.71875	-52.74200439453125	13.671875	-0.603515625	-0.4443359375	1.3583984375	-8.11	-5.096	15.216	NE	0.7494434835083593	0.6865466060832519	-1.0990262175900378	W	gpsLong	gpsLat	700	1000	1000	1000	1000
101	2019-06-09	11:54:01	-1.96075439453125	41.015625	107.421875	0.259765625	-0.928955078125	0.6630859375	-8.643	-4.342	15.184	NE	0.9645909584408644	0.5329917677089675	-0.7540898581514224	W	gpsLong	gpsLat	700	1000	1000	1000	1000
102	2019-06-09	11:54:01	138.671875	95.703125	74.21875	0.44921875	0.0830078125	0.6982421875	-8.098	0.398	15.354	NE	0.45682357895318587	-0.5454654224524358	-4.739612710118451	S	gpsLong	gpsLat	700	1000	1000	1000	1000
103	2019-06-09	11:54:01	87.86773681640625	113.28125	62.5	-0.0712890625	-1.143798828125	0.507568359375	-7.411	-1.404	15.177	NE	1.1460182763168536	-0.6866953676168857	1.8024433014453995	S	gpsLong	gpsLat	700	1000	1000	1000	1000
104	2019-06-09	11:54:01	41.00799560546875	31.25	-70.32012939453125	-0.261962890625	0.697021484375	1.436279296875	-7.998	2.523	15.572	NE	0.7446230628612936	0.5869097920122677	-3.927918327198153	W	gpsLong	gpsLat	700	1000	1000	1000	1000
105	2019-06-09	11:54:01	-173.83575439453125	52.734375	-210.94512939453125	0.28857421875	1.99993896484375	1.53955078125	-0.637	-0.012	16.134	NE	2.0206511185327027	-7.3607518220109505	2.535739705228255	W	gpsLong	gpsLat	700	1000	1000	1000	1000
106	2019-06-09	11:54:02	-146.49200439453125	15.625	-195.32012939453125	1.99993896484375	0.5732421875	0.089111328125	-2.537	-0.131	16.669	NE	2.080471693782464	1.8994987073763454	0.11822566214178709	N	gpsLong	gpsLat	700	1000	1000	1000	1000
107	2019-06-09	11:54:02	-83.99200439453125	35.15625	-183.60137939453125	-0.6591796875	1.99993896484375	1.99993896484375	-0.758	-0.365	17.228	NE	2.1057715269024055	-1.7787554634845724	0.23493424597049842	N	gpsLong	gpsLat	700	1000	1000	1000	1000
108	2019-06-09	11:54:02	-97.66387939453125	105.46875	-166.02325439453125	1.99993896484375	-0.68017578125	-0.20751953125	-3.921	-0.664	17.668	NE	2.1124381544791646	3.1628818535306986	0.29842045385455773	N	gpsLong	gpsLat	700	1000	1000	1000	1000
109	2019-06-09	11:54:02	-64.46075439453125	-15.63262939453125	-169.92950439453125	-2.0	1.822509765625	1.99993896484375	1.341	0.295	18.206	NE	2.7058347779933816	-5.262066777560142	-0.9588349426741927	S	gpsLong	gpsLat	700	1000	1000	1000	1000
110	2019-06-09	11:54:02	15.625	83.984375	-39.07012939453125	0.297607421875	0.454833984375	0.503173828125	-2.565	-1.34	18.465	NE	0.543547726421077	3.9061908066162214	1.6347754789253548	N	gpsLong	gpsLat	700	1000	1000	1000	1000
111	2019-06-09	11:54:02	167.96112060546875	21.484375	-1.96075439453125	0.784423828125	-1.41552734375	0.307861328125	-4.249	-0.516	18.572	NE	1.6183443400692605	1.6844585017386664	-0.8234669033036376	W	gpsLong	gpsLat	700	1000	1000	1000	1000
112	2019-06-09	11:54:03	52.72674560546875	60.546875	-9.77325439453125	1.99993896484375	-2.0	-0.208740234375	-6.053	-1.095	18.601	NE	2.8283839667025923	1.8035650051876289	0.5784787712809737	N	gpsLong	gpsLat	700	1000	1000	1000	1000
113	2019-06-09	11:54:03	-91.80450439453125	-64.46075439453125	-3.91387939453125	1.5986328125	1.385986328125	0.3818359375	-5.439	1.154	18.799	NE	2.115794170270606	-0.6141237729552955	-2.248649012533703	S	gpsLong	gpsLat	700	1000	1000	1000	1000
114	2019-06-09	11:54:03	-191.41387939453125	169.921875	-25.39825439453125	1.99993896484375	-1.692626953125	-0.762451171875	-7.444	0.889	18.878	NE	2.6200652407040383	2.0048846258904147	0.26495853757951404	N	gpsLong	gpsLat	700	1000	1000	1000	1000
115	2019-06-09	11:54:03	-9.77325439453125	87.890625	-56.64825439453125	-1.734375	-0.64404296875	1.99993896484375	-5.724	-1.285	19.109	NE	1.8500940479395402	-1.7194277791618227	2.17418386868431	N	gpsLong	gpsLat	700	1000	1000	1000	1000
116	2019-06-09	11:54:03	136.71875	-27.35137939453125	-17.58575439453125	1.085693359375	1.34326171875	0.675048828125	-6.04	0.841	19.375	NE	1.7271601302861808	0.31569373667633194	-2.1267675608108005	W	gpsLong	gpsLat	700	1000	1000	1000	1000
117	2019-06-09	11:54:03	-27.35137939453125	-97.66387939453125	19.53125	1.2958984375	0.1298828125	0.295166015625	-6.693	1.598	19.428	NE	1.3023909955531217	0.653557866270476	-0.756118010713642	W	gpsLong	gpsLat	700	1000	1000	1000	1000
118	2019-06-09	11:54:03	-244.140625	-21.49200439453125	-15.63262939453125	1.531005859375	-1.2041015625	0.564697265625	-5.482	1.83	19.539	NE	1.9477780967696303	-1.2115976309349108	-0.23238895170515472	S	gpsLong	gpsLat	700	1000	1000	1000	1000
119	2019-06-09	11:54:04	111.328125	31.25	-17.58575439453125	0.928955078125	-0.504638671875	0.93994140625	-4.484	1.712	19.71	NE	1.0571744067683386	-0.9982633742099418	0.1181326909315048	S	gpsLong	gpsLat	700	1000	1000	1000	1000
120	2019-06-09	11:54:04	-46.875	-0.00762939453125	-89.85137939453125	0.599365234375	-1.08935546875	0.876220703125	-3.354	1.194	19.924	NE	1.2433559512355787	-1.1295812872375133	0.5176962636034954	S	gpsLong	gpsLat	700	1000	1000	1000	1000
121	2019-06-09	11:54:04	83.9996337890625	-33.21075439453125	-89.85137939453125	-1.582763671875	0.32275390625	1.99993896484375	-0.026	2.26	20.187	NE	1.615336164705931	-3.3276679094432846	-1.0660846837895404	S	gpsLong	gpsLat	700	1000	1000	1000	1000
122	2019-06-09	11:54:04	-189.453125	224.609375	-95.71075439453125	-1.5966796875	-1.703857421875	1.477294921875	1.437	1.008	20.492	NE	2.335062341470484	-1.4636016482164549	1.2519558071675583	S	gpsLong	gpsLat	700	1000	1000	1000	1000
123	2019-06-09	11:54:04	-121.09375	13.671875	-126.96075439453125	0.445068359375	-0.108154296875	0.8857421875	3.755	1.887	20.744	NE	0.45802095634291645	-2.3175630098419617	-0.8792077175932607	S	gpsLong	gpsLat	700	1000	1000	1000	1000
124	2019-06-09	11:54:04	-222.65625	41.015625	-117.19512939453125	-1.256591796875	-0.65625	1.99993896484375	4.542	1.312	21.04	NE	1.4176342992723974	-0.7867026727717845	0.575118080500322	S	gpsLong	gpsLat	700	1000	1000	1000	1000
125	2019-06-09	11:54:04	1.953125	93.75	-123.05450439453125	-1.35693359375	-2.0	1.98876953125	-2.319	-1.005	21.42	NE	2.416871692466791	6.860261397610268	2.3178071269074056	N	gpsLong	gpsLat	700	1000	1000	1000	1000
126	2019-06-09	11:54:05	103.515625	-33.21075439453125	-48.83575439453125	-0.47021484375	-1.925048828125	1.37158203125	-2.402	0.263	21.682	NE	1.9816445165438408	0.08339327024670729	-1.268600622288769	SW	gpsLong	gpsLat	700	1000	1000	1000	1000
127	2019-06-09	11:54:05	48.828125	138.671875	13.671875	-0.185546875	-0.863037109375	1.35205078125	-5.781	-1.679	21.684	NE	0.8827574383604033	3.379397986649728	1.9418284020540202	N	gpsLong	gpsLat	700	1000	1000	1000	1000
128	2019-06-09	11:54:05	-236.328125	97.65625	-46.88262939453125	1.0341796875	0.885986328125	0.196533203125	-5.223	-0.588	21.852	NE	1.3618000586216825	-0.5583513417902202	-1.0905747587442534	S	gpsLong	gpsLat	700	1000	1000	1000	1000
129	2019-06-09	11:54:05	82.03125	-107.42950439453125	-60.55450439453125	0.010009765625	-2.0	0.615966796875	-6.026	-0.487	22.085	NE	2.0000250486951074	0.8031008274684845	-0.1008519647342968	W	gpsLong	gpsLat	700	1000	1000	1000	1000
130	2019-06-09	11:54:05	173.828125	-89.85137939453125	-44.92950439453125	1.551513671875	-0.610107421875	0.2724609375	-2.014	-0.63	22.369	NE	1.6671609821016098	-4.011714566270246	0.14289254135964957	W	gpsLong	gpsLat	700	1000	1000	1000	1000
131	2019-06-09	11:54:05	23.4375	105.46875	-103.52325439453125	0.011962890625	0.08349609375	1.2998046875	-6.384	-2.046	22.523	NE	0.08434873101365842	4.369444635646296	1.416215408436143	N	gpsLong	gpsLat	700	1000	1000	1000	1000
132	2019-06-09	11:54:05	-150.4058837890625	-70.32012939453125	-50.78887939453125	0.02197265625	1.575439453125	1.323974609375	-0.668	1.453	22.957	NE	1.5755926720080542	-5.71562339697891	-3.4991948225175102	S	gpsLong	gpsLat	700	1000	1000	1000	1000
133	2019-06-09	11:54:06	124.99237060546875	7.8125	27.34375	0.635498046875	-1.18994140625	1.10791015625	-8.966	-0.044	22.785	NE	1.3490064187727824	8.29774697525016	1.497095248714375	N	gpsLong	gpsLat	700	1000	1000	1000	1000
134	2019-06-09	11:54:06	-91.80450439453125	41.015625	-33.21075439453125	0.9228515625	-0.578369140625	0.174072265625	-4.746	1.322	23.19	NE	1.0891124226800428	-4.21982476893975	-1.3662017506062087	S	gpsLong	gpsLat	700	1000	1000	1000	1000
135	2019-06-09	11:54:06	46.88262939453125	-146.49200439453125	-160.16387939453125	-0.058349609375	-0.59228515625	1.3017578125	-2.052	-3.204	23.439	NE	0.5951524033626194	-2.6940094640627477	4.52545637669719	S	gpsLong	gpsLat	700	1000	1000	1000	1000
136	2019-06-09	11:54:06	117.1875	115.234375	-72.27325439453125	-1.995361328125	0.180908203125	0.998779296875	-4.179	-2.123	23.744	NE	2.003545509274666	2.1265105854080497	-1.0807988679421348	W	gpsLong	gpsLat	700	1000	1000	1000	1000
137	2019-06-09	11:54:06	97.65625	42.96875	-76.17950439453125	-0.194580078125	1.281982421875	1.2333984375	-0.749	-3.548	23.959	NE	1.2966650827409603	-3.4300673564856665	1.425137893251553	W	gpsLong	gpsLat	700	1000	1000	1000	1000
138	2019-06-09	11:54:06	78.125	-29.30450439453125	-41.02325439453125	0.189208984375	1.3935546875	1.2763671875	4.436	0.169	24.039	NE	1.4063408928213108	-5.185106010050351	-3.7164686682885164	S	gpsLong	gpsLat	700	1000	1000	1000	1000
139	2019-06-09	11:54:06	-19.53887939453125	-31.25762939453125	-87.89825439453125	1.99993896484375	-1.36181640625	-0.407958984375	0.703	-1.654	24.344	NE	2.419566032872828	3.733714812824164	1.8222308540009093	N	gpsLong	gpsLat	700	1000	1000	1000	1000
140	2019-06-09	11:54:07	9.765625	105.46875	208.99200439453125	-0.193115234375	-0.32177734375	1.99993896484375	-1.267	-4.694	23.82	NE	0.37527876665022875	1.969296734676941	3.0401285565715606	N	gpsLong	gpsLat	700	1000	1000	1000	1000
141	2019-06-09	11:54:07	56.640625	177.734375	-13.66424560546875	1.99993896484375	0.595947265625	-0.414306640625	-0.614	-2.345	21.645	NE	2.0868418738625607	-0.6523646328476954	-2.3488383312800205	S	gpsLong	gpsLat	700	1000	1000	1000	1000
142	2019-06-09	11:54:07	-7.82012939453125	-19.53887939453125	-123.03924560546875	1.769775390625	-0.473876953125	0.112548828125	0.768	-2.922	19.529	NE	1.8321201652634318	-1.3818327939531423	0.576618595768565	S	gpsLong	gpsLat	700	1000	1000	1000	1000
143	2019-06-09	11:54:07	78.125	121.09375	-126.94549560546875	0.0107421875	-0.376953125	0.906005859375	-5.027	-2.873	17.489	NE	0.377106156194182	5.794949745716225	-0.04882926965093404	NW	gpsLong	gpsLat	700	1000	1000	1000	1000
144	2019-06-09	11:54:07	42.96875	0.0	-58.58612060546875	-0.28759765625	1.99993896484375	1.255859375	-1.91	-4.909	15.321	NE	2.020511884394839	-3.1175609263869295	2.035964220951604	NW	gpsLong	gpsLat	700	1000	1000	1000	1000
145	2019-06-09	11:54:07	37.0941162109375	121.09375	-87.88299560546875	1.258544921875	1.99993896484375	1.056884765625	1.601	-0.129	13.369	NE	2.362983534322159	-3.5110611698785865	-4.779640056270752	S	gpsLong	gpsLat	700	1000	1000	1000	1000
146	2019-06-09	11:54:07	-107.41424560546875	-113.28887939453125	-226.55487060546875	-0.19921875	-0.720458984375	1.27001953125	3.102	-0.961	11.527	NE	0.7474953234089288	-1.500849808902693	0.8318970025762039	S	gpsLong	gpsLat	700	1000	1000	1000	1000
147	2019-06-09	11:54:08	208.984375	82.03125	218.75762939453125	0.550048828125	-2.0	-0.16552734375	4.565	-1.544	10.021	N	2.074259798897353	-1.4625153319776305	0.5832318757327678	S	gpsLong	gpsLat	700	1000	1000	1000	1000
148	2019-06-09	11:54:08	-189.453125	85.9375	-1.953125	1.040283203125	-2.0	-0.005615234375	3.654	-0.221	8.817	N	2.25437111911593	0.9105938909728266	-1.3234856838450433	W	gpsLong	gpsLat	700	1000	1000	1000	1000
149	2019-06-09	11:54:08	-21.49200439453125	31.25	11.72637939453125	-2.0	1.251220703125	1.99993896484375	5.704	-1.563	7.798	N	2.359142481481061	-2.049572391675671	1.341941148875268	W	gpsLong	gpsLat	700	1000	1000	1000	1000
