#	dia(1)	hora(1)	gyroX	gyroY	gyroZ	accelX	accelY	accelZ	roll	pitch	yaw	brujula	vientoFG	varianzaRoll	varianzaPitch	direccion	gpsLong	gpsLat	altime	motores(4)	motores(4)	motores(4)	motores(4)
0	2019-06-03	14:46:18	64.453125	39.0625	17.578125	0.2744140625	-0.96337890625	0.08251953125	-15.206	-0.922	-18.313	NW	1.0016995531122095	11.266979231419661	-1.8717509109378652	W	gpsLong	gpsLat	700	1000	1000	1000	1000
1	2019-06-03	14:46:18	-15.63262939453125	-19.53887939453125	-11.72637939453125	-1.304931640625	0.15673828125	0.84765625	-12.481	0.661	-18.301	NW	1.3143110269313951	-2.7250613458852513	-1.5831076947464695	S	gpsLong	gpsLat	700	1000	1000	1000	1000
2	2019-06-03	14:46:18	21.484375	19.53125	-29.30450439453125	0.857177734375	0.321044921875	-0.208984375	-5.738	4.594	-18.28	NW	0.9153269963078675	-6.743036470603304	-3.9331615885626805	S	gpsLong	gpsLat	700	1000	1000	1000	1000
3	2019-06-03	14:46:18	-56.64825439453125	-80.08575439453125	-46.88262939453125	0.8681640625	1.12255859375	1.026611328125	-0.474	3.871	-18.167	NW	1.419100643301412	-5.263594717166201	0.7223626821188112	S	gpsLong	gpsLat	700	1000	1000	1000	1000
4	2019-06-03	14:46:18	64.453125	54.6875	-15.63262939453125	-0.048095703125	-1.14111328125	0.96044921875	-4.959	6.586	-18.011	NW	1.1421264016317239	4.485407671370245	-2.7143069524289696	W	gpsLong	gpsLat	700	1000	1000	1000	1000
5	2019-06-03	14:46:18	-46.8902587890625	-150.33721923828125	-162.11700439453125	0.93212890625	0.939208984375	1.267333984375	-6.006	5.207	-17.726	NW	1.3232451829489273	1.0466030070336343	1.37842366628516	N	gpsLong	gpsLat	700	1000	1000	1000	1000
6	2019-06-03	14:46:19	-107.42950439453125	-167.96112060546875	-160.16387939453125	1.0791015625	0.312744140625	1.164306640625	-4.62	5.114	-17.633	NW	1.1235074898215904	-1.38568566590006	0.09334420928513865	N	gpsLong	gpsLat	700	1000	1000	1000	1000
7	2019-06-03	14:46:19	144.53125	-5.86700439453125	-37.11700439453125	0.2158203125	-1.493896484375	0.546875	-5.775	3.957	-17.321	NW	1.5094055496504517	1.1550733618301496	1.1566409001012015	N	gpsLong	gpsLat	700	1000	1000	1000	1000
8	2019-06-03	14:46:19	166.015625	-224.61700439453125	-99.61700439453125	1.27978515625	-1.064208984375	-0.243896484375	-9.042	10.332	-16.691	NW	1.6644491006282847	3.2667976209591476	-6.374425129031133	W	gpsLong	gpsLat	700	1000	1000	1000	1000
9	2019-06-03	14:46:19	62.5	203.11737060546875	-146.49200439453125	-1.06787109375	-0.064697265625	1.260986328125	-10.788	11.949	-16.246	NW	1.0698291494655459	1.7458512812777354	-1.6175017503670013	W	gpsLong	gpsLat	700	1000	1000	1000	1000
10	2019-06-03	14:46:19	-74.22637939453125	-236.33575439453125	-130.86700439453125	1.554443359375	-0.28369140625	-0.0556640625	-9.093	10.358	-16.134	NW	1.580118657406822	-1.6951528872541264	1.5908289953596615	W	gpsLong	gpsLat	700	1000	1000	1000	1000
11	2019-06-03	14:46:19	-29.30450439453125	117.1875	-83.99200439453125	-1.47119140625	1.723388671875	1.9599609375	-9.392	10.785	-15.832	NW	2.265937481081711	0.2993191863528679	-0.42685323738530734	W	gpsLong	gpsLat	700	1000	1000	1000	1000
12	2019-06-03	14:46:19	-160.15625	208.97674560546875	91.796875	0.06201171875	1.547607421875	0.989501953125	-8.735	8.695	-15.987	NW	1.5488493101347571	-0.6570872389981446	2.09047401750993	W	gpsLong	gpsLat	700	1000	1000	1000	1000
13	2019-06-03	14:46:20	-19.53887939453125	166.015625	175.78125	-0.154541015625	-1.548095703125	0.343017578125	-9.85	7.389	-16.252	NW	1.5557902273585904	1.1148071825405133	1.3055876559565336	N	gpsLong	gpsLat	700	1000	1000	1000	1000
14	2019-06-03	14:46:20	-105.47637939453125	126.953125	148.4375	0.894287109375	-0.06494140625	0.63916015625	-7.631	9.357	-16.515	NW	0.8966419688147665	-2.2185028661409696	-1.967456420079574	S	gpsLong	gpsLat	700	1000	1000	1000	1000
15	2019-06-03	14:46:20	-23.44512939453125	-52.74200439453125	105.46875	0.111083984375	-1.09912109375	0.94677734375	-11.864	9.582	-16.575	NW	1.1047202497966722	4.2328705249253336	-0.22565278853977233	W	gpsLong	gpsLat	700	1000	1000	1000	1000
16	2019-06-03	14:46:20	21.484375	-101.57012939453125	15.625	-1.056884765625	-0.487060546875	1.99993896484375	-13.473	5.086	-16.998	NW	1.1637153363827364	1.608885364011643	4.496434313677193	N	gpsLong	gpsLat	700	1000	1000	1000	1000
17	2019-06-03	14:46:20	31.25	214.83612060546875	19.53125	0.40966796875	-1.752197265625	0.99169921875	-14.282	3.688	-17.093	NW	1.7994507779551732	0.8090067024308478	1.3981191099168186	N	gpsLong	gpsLat	700	1000	1000	1000	1000
18	2019-06-03	14:46:20	-1.96075439453125	48.828125	25.390625	0.025634765625	0.598388671875	1.99993896484375	-15.383	1.689	-17.287	NW	0.598937512464343	1.100803818178198	1.9990282532394372	N	gpsLong	gpsLat	700	1000	1000	1000	1000
19	2019-06-03	14:46:20	35.15625	-58.60137939453125	41.015625	0.78857421875	-0.24560546875	0.1572265625	-16.217	3.043	-17.138	NW	0.8259366469391464	0.8342963489111668	-1.3545112891084006	W	gpsLong	gpsLat	700	1000	1000	1000	1000
20	2019-06-03	14:46:21	23.4375	-82.03887939453125	-17.58575439453125	1.013427734375	1.05712890625	0.61767578125	-9.527	3.298	-17.517	NW	1.4644307075549075	-6.690372787529613	-0.25478792334470146	S	gpsLong	gpsLat	700	1000	1000	1000	1000
21	2019-06-03	14:46:21	39.0625	-60.55450439453125	-7.82012939453125	-1.3701171875	-1.4541015625	1.99993896484375	-8.358	-0.622	-17.634	NW	1.9979070202459002	-1.1693947730535132	3.920002212752628	S	gpsLong	gpsLat	700	1000	1000	1000	1000
22	2019-06-03	14:46:21	5.859375	-103.52325439453125	-76.17950439453125	0.001953125	-0.32958984375	1.876708984375	-11.472	-0.08	-17.301	NW	0.32959563073623266	3.1142472467340117	-0.542293968686226	W	gpsLong	gpsLat	700	1000	1000	1000	1000
23	2019-06-03	14:46:21	-33.21075439453125	-37.11700439453125	-41.02325439453125	0.893798828125	-0.353759765625	1.256591796875	-13.601	-0.684	-17.051	NW	0.9612607954830356	2.1294026002284987	0.6043757541502982	N	gpsLong	gpsLat	700	1000	1000	1000	1000
24	2019-06-03	14:46:21	5.859375	-234.3902587890625	-70.32012939453125	-0.853759765625	-1.592041015625	0.951416015625	-12.549	-2.806	-17.101	NW	1.806516075996097	-1.051786775265846	2.1220891324196	N	gpsLong	gpsLat	700	1000	1000	1000	1000
25	2019-06-03	14:46:21	179.6875	87.890625	-11.72637939453125	0.68896484375	0.396484375	1.128662109375	-9.535	-1.475	-17.122	NW	0.7949040291397462	-3.0148767526357325	-1.3309500538196213	S	gpsLong	gpsLat	700	1000	1000	1000	1000
26	2019-06-03	14:46:21	42.96875	-27.35137939453125	35.15625	1.2275390625	-0.2529296875	-0.03466796875	-13.676	-1.64	-16.884	NW	1.2533258063178252	4.141910712113997	0.16462300101524519	N	gpsLong	gpsLat	700	1000	1000	1000	1000
27	2019-06-03	14:46:22	-19.53887939453125	39.0625	3.90625	0.723388671875	0.707275390625	0.9951171875	-14.45	1.442	-16.485	NW	1.0116964212553203	0.7732409197453869	-3.082078654210342	W	gpsLong	gpsLat	700	1000	1000	1000	1000
28	2019-06-03	14:46:22	62.5	123.046875	-19.53887939453125	-0.393798828125	0.81298828125	0.97802734375	-6.756	-0.334	-16.925	NW	0.9033423838625377	-7.694112351386834	1.7761694530963452	W	gpsLong	gpsLat	700	1000	1000	1000	1000
29	2019-06-03	14:46:22	60.546875	166.015625	-3.91387939453125	-0.760986328125	-1.50146484375	1.22705078125	-3.849	2.104	-16.855	NW	1.6832993995752454	-2.906447366454601	-2.437609887531182	S	gpsLong	gpsLat	700	1000	1000	1000	1000
30	2019-06-03	14:46:22	-58.60137939453125	-33.21075439453125	27.34375	-0.885498046875	-0.753662109375	0.7822265625	-7.225	-0.297	-16.815	NW	1.1628040961946315	3.376248471929597	2.400918858228957	N	gpsLong	gpsLat	700	1000	1000	1000	1000
31	2019-06-03	14:46:22	-72.27325439453125	152.34375	113.28125	0.287841796875	-0.40087890625	1.231201171875	-4.652	0.896	-16.838	NW	0.49351473889279646	-2.5729383699150237	-1.193141252397531	S	gpsLong	gpsLat	700	1000	1000	1000	1000
32	2019-06-03	14:46:22	56.640625	95.703125	210.9375	-0.099365234375	-0.494140625	0.97265625	-3.561	0.807	-17.193	NW	0.5040321488534132	-1.091622945802877	0.08933671672208121	SE	gpsLong	gpsLat	700	1000	1000	1000	1000
33	2019-06-03	14:46:23	-52.74200439453125	119.140625	-13.67950439453125	1.60595703125	0.910888671875	0.12060546875	-2.564	1.351	-17.194	NW	1.8462979604526228	-0.9966433663732195	-0.5439505349869199	S	gpsLong	gpsLat	700	1000	1000	1000	1000
34	2019-06-03	14:46:23	-56.64825439453125	-87.89825439453125	-60.55450439453125	0.02880859375	-0.58837890625	0.657958984375	-1.192	1.552	-17.011	NW	0.5890837566881291	-1.3725671495991176	-0.20104734534031188	S	gpsLong	gpsLat	700	1000	1000	1000	1000
35	2019-06-03	14:46:23	-7.82012939453125	83.984375	-62.50762939453125	-0.138427734375	0.2392578125	0.20458984375	-1.58	-0.332	-16.837	NW	0.2764173266755916	0.3886721710368186	1.883795883330673	N	gpsLong	gpsLat	700	1000	1000	1000	1000
36	2019-06-03	14:46:23	121.09375	70.3125	-41.02325439453125	0.618408203125	1.99993896484375	1.21240234375	-1.375	-0.039	-16.664	NW	2.093366802257211	-0.20487725807034618	-0.29269941178251924	S	gpsLong	gpsLat	700	1000	1000	1000	1000
37	2019-06-03	14:46:23	39.0625	50.78125	-21.49200439453125	-0.518798828125	-1.2421875	0.483154296875	-2.125	0.326	-16.486	NW	1.3461730977924509	0.7492828478957763	-0.36572088627988064	W	gpsLong	gpsLat	700	1000	1000	1000	1000
38	2019-06-03	14:46:23	66.40625	117.1875	-41.02325439453125	-0.68896484375	0.30322265625	1.99993896484375	0.201	-0.51	-16.346	NW	0.7527393540839801	-2.325233922776202	0.8359950039268056	W	gpsLong	gpsLat	700	1000	1000	1000	1000
39	2019-06-03	14:46:23	76.171875	29.296875	-1.96075439453125	1.548095703125	1.7626953125	-0.117919921875	0.4	-0.422	-16.262	NW	2.3459955393699197	-0.1995596131615265	-0.0872932747611988	SE	gpsLong	gpsLat	700	1000	1000	1000	1000
40	2019-06-03	14:46:24	-62.50762939453125	58.59375	-33.21075439453125	-1.093017578125	-0.539794921875	1.673095703125	0.559	-2.765	-16.121	NW	1.2190430606718854	-0.1585803861450612	2.343029545824404	SE	gpsLong	gpsLat	700	1000	1000	1000	1000
41	2019-06-03	14:46:24	39.0625	42.96875	-35.16387939453125	1.013916015625	1.4931640625	0.6171875	2.628	-0.207	-15.987	NW	1.8048724620544188	-2.0694597297335697	-2.5588046822013597	S	gpsLong	gpsLat	700	1000	1000	1000	1000
42	2019-06-03	14:46:24	-3.91387939453125	0.0	-7.82012939453125	-1.096923828125	-1.267333984375	1.6962890625	0.986	-3.588	-15.81	NW	1.676119719071468	1.6417511580196016	3.381749756150424	N	gpsLong	gpsLat	700	1000	1000	1000	1000
43	2019-06-03	14:46:24	76.171875	-21.49200439453125	-1.96075439453125	1.856201171875	1.4345703125	0.01220703125	0.296	0.344	-15.68	NW	2.345948586814398	0.6907953094486259	-3.9329046650025172	W	gpsLong	gpsLat	700	1000	1000	1000	1000
44	2019-06-03	14:46:24	76.171875	-23.44512939453125	-11.72637939453125	-0.60498046875	0.276123046875	1.99993896484375	1.794	-1.861	-15.507	NW	0.6650152664296536	-1.4986504470967903	2.2052009169564735	W	gpsLong	gpsLat	700	1000	1000	1000	1000
45	2019-06-03	14:46:24	-9.77325439453125	19.53125	17.578125	0.1337890625	1.304931640625	0.7880859375	2.518	-3.367	-15.408	NW	1.311772121959025	-0.7239175068153691	1.5067312248563318	W	gpsLong	gpsLat	700	1000	1000	1000	1000
46	2019-06-03	14:46:24	115.234375	148.4375	21.484375	-1.174072265625	0.1982421875	1.29541015625	0.375	-2.966	-15.426	NW	1.1906912487352066	2.1428323332020636	-0.4015333816721527	W	gpsLong	gpsLat	700	1000	1000	1000	1000
47	2019-06-03	14:46:25	48.828125	117.1875	-54.69512939453125	1.00830078125	0.521240234375	1.322021484375	0.823	-3.299	-15.319	NW	1.1350602835976005	-0.4481576926460584	0.333390639122217	W	gpsLong	gpsLat	700	1000	1000	1000	1000
48	2019-06-03	14:46:25	144.53125	-3.91387939453125	-64.46075439453125	-0.208984375	0.389404296875	0.21875	1.011	-4.539	-15.157	NW	0.4419391082704197	-0.18716456404812953	1.2392957379122862	W	gpsLong	gpsLat	700	1000	1000	1000	1000
49	2019-06-03	14:46:25	-107.42950439453125	13.671875	-39.07012939453125	-0.294677734375	0.2001953125	1.99993896484375	3.755	-3.328	-14.987	NW	0.3562486916233598	-2.7442721625417588	-1.211051819131478	S	gpsLong	gpsLat	700	1000	1000	1000	1000
