dia(1)	hora(1)	gyroX	gyroY	gyroZ	accelX	accelY	accelZ	roll	pitch	yaw	brujula	vientoFG	varianzaRoll	varianzaPitch	direccion	gpsLong	gpsLat	altime	motores(4)	motores(4)	motores(4)	motores(4)
2019-04-18	20:08:02	33.203125	17.578125	-15.63262939453125	0.00732421875	0.024169921875	1.0556640625	1.001	0.257	0.118	N	0.025255282689794923	0	0	None	gpsLong	gpsLat	700	1000	1000	1000	1000
2019-04-18	20:08:02	39.0625	9.765625	-5.86700439453125	0.007568359375	0.02197265625	1.061279296875	1.183	0.199	0.17	N	0.023239571560375514	-0.1819062744563611	0.05741812683890063	SE	gpsLong	gpsLat	700	1000	1000	1000	1000
2019-04-18	20:08:02	35.15625	13.671875	-9.77325439453125	0.0078125	0.02099609375	1.056396484375	1.364	0.163	0.191	N	0.022402479974520433	-0.1818717626196762	0.03600834658021912	SE	gpsLong	gpsLat	700	1000	1000	1000	1000
2019-04-18	20:08:02	50.78125	3.90625	-123.05450439453125	0.00634765625	0.017333984375	1.062255859375	1.54	0.145	0.338	N	0.018459679146206963	-0.17515530908977373	0.018528627797801622	SE	gpsLong	gpsLat	700	1000	1000	1000	1000
2019-04-18	20:08:02	52.734375	-3.91387939453125	-46.88262939453125	0.00390625	0.02685546875	1.060791015625	1.729	0.151	0.558	N	0.027138072717949713	-0.1895480908670124	-0.0062178375156427546	SE	gpsLong	gpsLat	700	1000	1000	1000	1000
2019-04-18	20:08:02	46.875	7.8125	-13.67950439453125	0.008544921875	0.024169921875	1.067138671875	1.869	0.131	0.709	N	0.025635928173043727	-0.14013332393462563	0.020259692028509607	SE	gpsLong	gpsLat	700	1000	1000	1000	1000
2019-04-18	20:08:03	44.921875	13.671875	-11.72637939453125	0.006591796875	0.020263671875	1.053955078125	1.974	0.1	0.744	N	0.02130887570705986	-0.1045922209329666	0.0304799984688391	SE	gpsLong	gpsLat	700	1000	1000	1000	1000
2019-04-18	20:08:03	37.109375	15.625	-9.77325439453125	0.005126953125	0.022705078125	1.0546875	2.058	0.063	0.775	N	0.023276731321392633	-0.0836014953973423	0.037183905829981156	None	gpsLong	gpsLat	700	1000	1000	1000	1000
2019-04-18	20:08:03	37.109375	13.671875	-11.72637939453125	0.004150390625	0.023193359375	1.05615234375	2.148	0.038	0.863	N	0.023561783918837474	-0.09063284744363154	0.025489674806351573	SE	gpsLong	gpsLat	700	1000	1000	1000	1000
2019-04-18	20:08:03	39.0625	7.8125	-7.82012939453125	0.00537109375	0.02197265625	1.062255859375	2.239	0.038	0.985	N	0.022619599261524355	-0.09114922469432996	-0.0008363120682590014	SE	gpsLong	gpsLat	700	1000	1000	1000	1000
2019-04-18	20:08:03	35.15625	15.625	-17.58575439453125	0.00537109375	0.02392578125	1.06591796875	2.288	0.006	1.07	N	0.024521249081034608	-0.04855285086779393	0.03216349471420398	None	gpsLong	gpsLat	700	1000	1000	1000	1000
2019-04-18	20:08:03	42.96875	9.765625	-9.77325439453125	0.003662109375	0.021728515625	1.057373046875	2.329	-0.023	1.091	N	0.022034959413176416	-0.041403786065981496	0.02960368890046349	None	gpsLong	gpsLat	700	1000	1000	1000	1000
2019-04-18	20:08:03	39.0625	13.671875	-3.91387939453125	0.0048828125	0.02294921875	1.068359375	2.371	-0.039	1.108	N	0.023462917532683522	-0.04165751618175184	0.015505138034646877	None	gpsLong	gpsLat	700	1000	1000	1000	1000
2019-04-18	20:08:04	41.015625	9.765625	-105.47637939453125	0.00048828125	0.015380859375	1.060302734375	2.434	-0.038	1.217	N	0.01538860791925725	-0.06304599872687078	-0.00116633295627349	None	gpsLong	gpsLat	700	1000	1000	1000	1000
2019-04-18	20:08:04	37.109375	11.71875	101.55487060546875	0.018798828125	0.03125	1.062744140625	2.445	-0.123	1.889	N	0.03646859524129345	-0.011490804556910206	0.0848993240301802	None	gpsLong	gpsLat	700	1000	1000	1000	1000
2019-04-18	20:08:04	37.109375	15.625	44.91424560546875	-0.033203125	0.0244140625	1.061767578125	2.462	-0.219	2.652	N	0.0412127887617367	-0.01624005842393883	0.09639390301633519	None	gpsLong	gpsLat	700	1000	1000	1000	1000
2019-04-18	20:08:04	37.109375	9.765625	-37.1246337890625	-0.02490234375	0.028076171875	1.0634765625	2.464	-0.359	4.093	N	0.03752863108877947	-0.002130239697799574	0.13949827008636684	None	gpsLong	gpsLat	700	1000	1000	1000	1000
2019-04-18	20:08:04	33.203125	13.671875	175.77362060546875	-0.06591796875	0.045166015625	1.053466796875	2.456	-0.413	5.026	N	0.0799071184035798	0.007431326953573514	0.05400171228768019	None	gpsLong	gpsLat	700	1000	1000	1000	1000
2019-04-18	20:08:04	23.4375	37.109375	-150.421142578125	-0.004150390625	0.104736328125	1.052978515625	2.465	-0.567	6.123	N	0.10481852971420537	-0.008331603993959824	0.15421675662119705	None	gpsLong	gpsLat	700	1000	1000	1000	1000
2019-04-18	20:08:04	25.390625	37.109375	117.14935302734375	0.018310546875	0.017822265625	1.064453125	2.366	-0.807	8.847	N	0.025552089520617074	0.09863454943319372	0.24020556878100097	N	gpsLong	gpsLat	700	1000	1000	1000	1000
2019-04-18	20:08:05	42.96875	-13.67950439453125	-111.38153076171875	0.086181640625	-0.015869140625	1.063232421875	2.133	-1.141	14.423	NE	0.08763050156762014	0.23296576228780674	0.33367867318589817	N	gpsLong	gpsLat	700	1000	1000	1000	1000
2019-04-18	20:08:05	27.34375	9.765625	-242.218017578125	0.029296875	-0.0068359375	1.064453125	1.875	-1.342	19.037	NE	0.0300838316420886	0.25829241353654275	0.20171643546473095	N	gpsLong	gpsLat	700	1000	1000	1000	1000
2019-04-18	20:08:05	19.53125	3.90625	-234.39788818359375	0.02001953125	0.004150390625	1.054443359375	1.721	-1.428	22.22	NE	0.020445228631879236	0.15404717203749074	0.08589219606854992	NW	gpsLong	gpsLat	700	1000	1000	1000	1000
2019-04-18	20:08:05	25.390625	9.765625	187.47711181640625	0.001220703125	0.008544921875	1.05859375	1.582	-1.429	24.724	NE	0.008631674575031098	0.13839352166490637	0.0011520050798510262	NW	gpsLong	gpsLat	700	1000	1000	1000	1000
2019-04-18	20:08:05	21.484375	3.90625	-23.46038818359375	0.0185546875	0.01025390625	1.05908203125	1.444	-1.407	27.516	NE	0.02119950522079337	0.13873014089708469	-0.02269770748530764	NW	gpsLong	gpsLat	700	1000	1000	1000	1000
2019-04-18	20:08:05	-54.69512939453125	-42.97637939453125	236.30523681640625	0.0234375	0.000732421875	1.069091796875	1.23	-1.318	29.613	NE	0.02344894129919256	0.2141312861551652	-0.08827955066344129	NW	gpsLong	gpsLat	700	1000	1000	1000	1000
2019-04-18	20:08:05	27.34375	23.4375	169.89898681640625	-0.0078125	0.005126953125	1.046142578125	0.855	-1.098	32.099	NE	0.009344560160646796	0.37436871478746403	-0.22048315382570527	W	gpsLong	gpsLat	700	1000	1000	1000	1000
2019-04-18	20:08:06	25.390625	15.625	-15.64788818359375	-0.20654296875	0.08251953125	1.037353515625	0.654	-1.002	35.255	E	0.22241733515574547	0.20145832198101854	-0.09618062143380968	W	gpsLong	gpsLat	700	1000	1000	1000	1000
2019-04-18	20:08:06	11.71875	23.4375	54.6722412109375	0.0615234375	-0.03515625	1.052734375	0.539	-0.858	37.676	E	0.07085968724090522	0.11464378864952218	-0.14357809339686223	W	gpsLong	gpsLat	700	1000	1000	1000	1000
2019-04-18	20:08:06	-9.77325439453125	31.25	126.93023681640625	0.0556640625	-0.015380859375	1.0693359375	0.499	-0.864	39.935	E	0.0577499670053363	0.04046123685383163	0.006258015122654226	None	gpsLong	gpsLat	700	1000	1000	1000	1000
2019-04-18	20:08:06	-23.44512939453125	52.734375	64.39971923828125	0.038818359375	-0.001708984375	1.030029296875	0.355	-1.009	45.077	E	0.03885596031705618	0.14394010556054715	0.144961329351181	N	gpsLong	gpsLat	700	1000	1000	1000	1000
2019-04-18	20:08:06	0.0	27.34375	-242.218017578125	0.05029296875	-0.030029296875	1.03759765625	0.126	-0.816	50.07	E	0.05857594537432035	0.2284398819860422	-0.19386213117071238	W	gpsLong	gpsLat	700	1000	1000	1000	1000
2019-04-18	20:08:06	39.0625	27.34375	-214.86663818359375	-0.0791015625	0.023193359375	1.04931640625	0.046	-0.786	53.265	E	0.08243172392373768	0.08052934578151544	-0.02924909491735561	None	gpsLong	gpsLat	700	1000	1000	1000	1000
2019-04-18	20:08:07	3.90625	35.15625	-222.67913818359375	0.040771484375	-0.01318359375	1.056640625	-0.005	-0.654	55.898	E	0.042849983457475316	0.05070405809747381	-0.13251148890835984	SW	gpsLong	gpsLat	700	1000	1000	1000	1000
2019-04-18	20:08:07	21.484375	13.671875	191.39862060546875	-0.1611328125	-0.0048828125	1.066650390625	0.003	-0.493	57.983	SE	0.16120677753143728	-0.00806135351206764	-0.16073984622948656	SW	gpsLong	gpsLat	700	1000	1000	1000	1000
2019-04-18	20:08:07	7.8125	-1.96075439453125	-1.96075439453125	0.0185546875	0.00244140625	1.0576171875	0.138	-0.366	59.062	SE	0.01871461708665703	-0.13471597032983212	-0.12710712481902686	S	gpsLong	gpsLat	700	1000	1000	1000	1000
2019-04-18	20:08:07	27.34375	9.765625	27.34375	0.0263671875	-0.000732421875	1.05224609375	0.209	-0.225	58.998	SE	0.026377358064505526	-0.07108060117943046	-0.1405472197675971	SW	gpsLong	gpsLat	700	1000	1000	1000	1000
2019-04-18	20:08:07	25.390625	7.8125	31.25	0.01953125	-0.006103515625	1.053466796875	0.219	-0.08	59.054	SE	0.020462713152148693	-0.010625571192042577	-0.14492172093265318	SW	gpsLong	gpsLat	700	1000	1000	1000	1000
2019-04-18	20:08:07	17.578125	11.71875	27.34375	0.023193359375	-0.007568359375	1.055908203125	0.264	0.036	58.986	SE	0.024396966670614008	-0.04437184412097708	-0.11665111458748803	SW	gpsLong	gpsLat	700	1000	1000	1000	1000
2019-04-18	20:08:07	23.4375	7.8125	35.15625	0.02294921875	-0.003173828125	1.060302734375	0.298	0.155	58.915	SE	0.023167646108363978	-0.034499421590355905	-0.11915087297890281	SW	gpsLong	gpsLat	700	1000	1000	1000	1000
2019-04-18	20:08:08	19.53125	9.765625	27.34375	0.022216796875	-0.007080078125	1.05615234375	0.315	0.264	58.843	SE	0.023317666470749454	-0.016218283367934794	-0.10837295677323888	SW	gpsLong	gpsLat	700	1000	1000	1000	1000
2019-04-18	20:08:08	25.390625	9.765625	27.34375	0.021728515625	-0.003662109375	1.060791015625	0.341	0.354	58.78	SE	0.022034959413176416	-0.026909512916798328	-0.09044218786054936	SW	gpsLong	gpsLat	700	1000	1000	1000	1000
2019-04-18	20:08:08	27.34375	15.625	29.296875	0.0244140625	-0.0029296875	1.06005859375	0.38	0.411	58.716	SE	0.02458921545315268	-0.038855142881555504	-0.05696229410731962	None	gpsLong	gpsLat	700	1000	1000	1000	1000
2019-04-18	20:08:08	27.34375	9.765625	31.25	0.025146484375	-0.0048828125	1.056640625	0.412	0.48	58.647	SE	0.025616157680891087	-0.031415143307828075	-0.06903414610670389	None	gpsLong	gpsLat	700	1000	1000	1000	1000
2019-04-18	20:08:08	220.76416015625	154.28924560546875	-146.49200439453125	0.151611328125	0.13671875	1.17236328125	7.041	1.619	57.862	SE	0.20415193219117206	-6.628977201254402	-1.1387069286062543	S	gpsLong	gpsLat	700	1000	1000	1000	1000
2019-04-18	20:08:08	-144.44732666015625	-80.10101318359375	195.3125	0.078125	0.534423828125	1.15576171875	32.88	4.578	53.878	E	0.540104011920648	-25.838935931401075	-2.95926828517294	S	gpsLong	gpsLat	700	1000	1000	1000	1000
2019-04-18	20:08:08	222.686767578125	19.53125	76.16424560546875	0.062255859375	0.650390625	0.7705078125	48.266	5.305	49.465	E	0.6533634188676394	-15.386022437762243	-0.726834630582827	S	gpsLong	gpsLat	700	1000	1000	1000	1000
2019-04-18	20:08:09	189.44549560546875	218.75	197.2503662109375	0.179443359375	0.627685546875	0.696044921875	51.697	1.759	47.909	E	0.6528315747415663	-3.431435824563991	3.54632104181441	None	gpsLong	gpsLat	700	1000	1000	1000	1000
2019-04-18	20:08:09	44.891357421875	-87.89825439453125	74.21875	0.1416015625	0.501953125	0.90576171875	46.295	0.62	50.803	E	0.5215438065970174	5.401703656330369	1.1387075547391263	N	gpsLong	gpsLat	700	1000	1000	1000	1000
2019-04-18	20:08:09	-123.10028076171875	109.375	89.83612060546875	-0.027099609375	0.561279296875	0.893310546875	34.112	-0.094	55.866	E	0.5619331258510856	12.183176031462935	0.7134878992171761	N	gpsLong	gpsLat	700	1000	1000	1000	1000
2019-04-18	20:08:09	134.69696044921875	-78.125	-189.46075439453125	-0.0185546875	0.165771484375	1.09375	16.954	-2.142	59.842	SE	0.1668066589201808	17.15865348379252	2.048746831987571	N	gpsLong	gpsLat	700	1000	1000	1000	1000
2019-04-18	20:08:09	-62.5762939453125	-224.6246337890625	54.66461181640625	0.171142578125	0.013916015625	1.306396484375	-5.337	-1.044	62.037	SE	0.17170741841326184	22.290089848473386	-1.0986252307983653	W	gpsLong	gpsLat	700	1000	1000	1000	1000
2019-04-18	20:08:09	95.64208984375	-89.85137939453125	-70.32012939453125	-0.04296875	-0.199462890625	1.064208984375	-24.709	-0.86	59.5	SE	0.20403861941564694	19.37235413233778	-0.18396303177176132	W	gpsLong	gpsLat	700	1000	1000	1000	1000
2019-04-18	20:08:09	64.422607421875	197.25799560546875	-105.4840087890625	-0.0458984375	-0.484375	0.8798828125	-37.627	1.671	56.054	E	0.4865447638089854	12.918611541616738	-2.5305734576568533	W	gpsLong	gpsLat	700	1000	1000	1000	1000
2019-04-18	20:08:10	-74.2340087890625	-226.5625	214.83612060546875	0.00927734375	-0.50830078125	0.69140625	-42.322	3.391	54.782	E	0.5083854377599893	4.694578010185381	-1.7204587496887724	W	gpsLong	gpsLat	700	1000	1000	1000	1000
2019-04-18	20:08:10	214.84375	162.109375	48.828125	0.19287109375	-0.64404296875	0.7041015625	-41.379	1.714	56.017	E	0.6723024649669483	-0.9427228206797693	1.6768519065496503	None	gpsLong	gpsLat	700	1000	1000	1000	1000
2019-04-18	20:08:10	-119.140625	33.19549560546875	-128.91387939453125	0.1630859375	-0.573486328125	0.923095703125	-40.285	3.477	55.815	E	0.5962244472986235	-1.0943319166724663	-1.7626397050309233	S	gpsLong	gpsLat	700	1000	1000	1000	1000
2019-04-18	20:08:10	25.44403076171875	78.13262939453125	-29.2816162109375	-0.20654296875	-0.469482421875	0.892822265625	-30.205	1.347	58.377	SE	0.5129071479221936	-10.079626389944817	2.1301677614424204	None	gpsLong	gpsLat	700	1000	1000	1000	1000
2019-04-18	20:08:10	-218.68896484375	-144.53887939453125	138.702392578125	-0.182861328125	-0.306640625	0.885009765625	-11.138	-1.545	58.528	SE	0.3570248425866603	-19.067215507475204	2.8922810237951087	None	gpsLong	gpsLat	700	1000	1000	1000	1000
2019-04-18	20:08:10	-9.735107421875	-152.35137939453125	185.55450439453125	0.1474609375	-0.138916015625	1.162109375	4.447	-2.87	56.168	E	0.2025892087094082	-15.584885958514336	1.3242809926790613	None	gpsLong	gpsLat	700	1000	1000	1000	1000
2019-04-18	20:08:10	216.77398681640625	-13.67950439453125	-183.60137939453125	-0.111083984375	-0.021484375	1.05908203125	2.153	-2.43	55.196	E	0.11314252053832755	2.293872149721508	-0.43921768362055147	W	gpsLong	gpsLat	700	1000	1000	1000	1000
2019-04-18	20:08:11	-3.91387939453125	-62.50762939453125	29.296875	0.011962890625	0.002685546875	1.056640625	1.215	0.668	54.832	E	0.012260624540517304	0.9379099769791368	-3.0981146176791396	W	gpsLong	gpsLat	700	1000	1000	1000	1000
2019-04-18	20:08:11	-27.35137939453125	-23.44512939453125	-66.4215087890625	-0.011474609375	0.0078125	1.06298828125	1.005	0.812	56.019	E	0.013881707984208496	0.21038632925982004	-0.14433181880704504	W	gpsLong	gpsLat	700	1000	1000	1000	1000
2019-04-18	20:08:11	31.25	15.625	29.296875	0.020263671875	0.0009765625	1.060546875	0.882	0.87	56.129	E	0.020287189854045144	0.12279492333736519	-0.057789456962725305	NW	gpsLong	gpsLat	700	1000	1000	1000	1000
2019-04-18	20:08:11	-3.91387939453125	-15.63262939453125	27.34375	0.023193359375	-0.00634765625	1.0546875	0.778	0.936	56.062	E	0.02404630239696042	0.10411741705588962	-0.06656852858856199	NW	gpsLong	gpsLat	700	1000	1000	1000	1000
2019-04-18	20:08:11	13.671875	37.109375	-197.28851318359375	0.005615234375	0.01123046875	1.045166015625	0.841	0.776	57.488	SE	0.012556045772093545	-0.06285955953710431	0.1601919559537721	None	gpsLong	gpsLat	700	1000	1000	1000	1000
2019-04-18	20:08:11	89.84375	97.65625	115.2191162109375	0.0380859375	0.026611328125	1.057373046875	0.888	0.647	60.503	SE	0.04646182755585839	-0.047128078084983316	0.129461600342337	None	gpsLong	gpsLat	700	1000	1000	1000	1000
2019-04-18	20:08:12	41.015625	46.875	-142.60101318359375	-0.010498046875	0.009521484375	1.059326171875	0.923	0.515	63.097	SE	0.014172778587597648	-0.035199071849032815	0.1314871737249349	None	gpsLong	gpsLat	700	1000	1000	1000	1000
2019-04-18	20:08:12	33.203125	7.8125	-113.30413818359375	0.060791015625	-0.007568359375	1.068603515625	1.002	0.327	66.205	SE	0.061260326838404516	-0.07942126820335549	0.18802778217799598	None	gpsLong	gpsLat	700	1000	1000	1000	1000
2019-04-18	20:08:12	23.4375	29.296875	199.2034912109375	0.02685546875	-0.006591796875	1.047607421875	0.877	0.387	68.686	SE	0.02765263075773237	0.12486035760785508	-0.0601024096998975	NW	gpsLong	gpsLat	700	1000	1000	1000	1000
2019-04-18	20:08:12	21.484375	29.296875	-210.9527587890625	0.0341796875	-0.00244140625	1.033203125	0.939	0.325	69.689	SE	0.03426676964750537	-0.06128457067726678	0.06231249211990253	None	gpsLong	gpsLat	700	1000	1000	1000	1000
2019-04-18	20:08:12	-3.91387939453125	7.8125	207.000732421875	0.02783203125	0.009521484375	1.06884765625	0.985	0.205	71.841	SE	0.029415652775424614	-0.04651412656380982	0.11969829031485399	None	gpsLong	gpsLat	700	1000	1000	1000	1000
2019-04-18	20:08:12	37.109375	62.5	-175.811767578125	0.06103515625	0.0078125	1.03515625	0.972	0.263	75.63	SE	0.06153312485736373	0.013029207148051225	-0.05814068190944807	None	gpsLong	gpsLat	700	1000	1000	1000	1000
2019-04-18	20:08:12	0.0	-0.00762939453125	154.2816162109375	0.11328125	-0.00244140625	1.0244140625	0.906	0.347	78.144	SE	0.11330755520281972	0.06602936188589881	-0.08394833311878547	None	gpsLong	gpsLat	700	1000	1000	1000	1000
2019-04-18	20:08:13	44.921875	35.15625	162.10174560546875	0.06640625	-0.030029296875	1.07763671875	0.905	0.556	79.238	S	0.07288037259694399	0.0010011295497693862	-0.20899034790581478	SW	gpsLong	gpsLat	700	1000	1000	1000	1000
2019-04-18	20:08:13	-3.91387939453125	-5.86700439453125	-195.30487060546875	0.059814453125	0.013671875	1.072509765625	0.735	0.664	78.427	SE	0.061357061277887544	0.17022460900723602	-0.1080218246760668	W	gpsLong	gpsLat	700	1000	1000	1000	1000
2019-04-18	20:08:13	50.78125	-146.56829833984375	-39.10064697265625	0.791015625	0.299072265625	0.854248046875	1.35	13.024	72.132	SE	0.8456653824416671	-0.6149962724468525	-12.359447625669436	S	gpsLong	gpsLat	700	1000	1000	1000	1000
2019-04-18	20:08:13	3.92913818359375	-214.94293212890625	72.296142578125	0.661376953125	-0.236572265625	1.0400390625	0.755	41.902	56.604	SE	0.7024143442355474	0.5948520860862457	-28.878180954779886	W	gpsLong	gpsLat	700	1000	1000	1000	1000
2019-04-18	20:08:13	-52.734375	142.46368408203125	144.53125	1.160400390625	-0.046875	0.524658203125	0.855	64.516	45.434	E	1.161346775165649	-0.09953835127004407	-22.61372457110229	S	gpsLong	gpsLat	700	1000	1000	1000	1000
2019-04-18	20:08:13	-19.53125	29.2205810546875	-74.249267578125	0.861083984375	-0.007568359375	0.09326171875	6.782	82.777	37.621	E	0.8611172441722175	-5.927157547835144	-18.261325616702933	S	gpsLong	gpsLat	700	1000	1000	1000	1000
2019-04-18	20:08:13	-121.10137939453125	-95.703125	-191.41387939453125	0.620361328125	0.0087890625	-0.124267578125	10.881	74.303	36.78	E	0.6204235851840603	-4.099606481705663	8.474177185195927	None	gpsLong	gpsLat	700	1000	1000	1000	1000
2019-04-18	20:08:14	-164.05487060546875	-199.15771484375	-167.94586181640625	0.634033203125	-0.093994140625	0.124267578125	3.884	85.206	39.43	E	0.6409625582955527	6.997847098996141	-10.903263226190987	W	gpsLong	gpsLat	700	1000	1000	1000	1000
2019-04-18	20:08:14	-240.27252197265625	-148.33831787109375	185.60028076171875	1.164306640625	-0.14599609375	0.998046875	-12.891	56.011	42.65	E	1.173424395857582	16.774612063012942	29.195354147705707	N	gpsLong	gpsLat	700	1000	1000	1000	1000
2019-04-18	20:08:14	-70.3277587890625	-185.4248046875	-85.8917236328125	0.08203125	-0.568359375	0.9677734375	-26.421	16.221	50.761	E	0.5742486439922633	13.529916041746668	39.7902312422426	N	gpsLong	gpsLat	700	1000	1000	1000	1000
2019-04-18	20:08:14	224.6246337890625	-144.40155029296875	17.6544189453125	-0.268310546875	-0.34423828125	1.373046875	-17.994	-34.988	55.387	E	0.43645222400890077	-8.4273531259479	51.2086274909725	None	gpsLong	gpsLat	700	1000	1000	1000	1000
2019-04-18	20:08:14	60.55450439453125	197.34954833984375	168.00689697265625	-0.505859375	-0.19580078125	0.707275390625	-1.933	-69.246	46.997	E	0.5424312428441977	-16.060411670960523	34.258332638903696	None	gpsLong	gpsLat	700	1000	1000	1000	1000
2019-04-18	20:08:14	-232.41424560546875	50.80413818359375	39.08538818359375	-0.5107421875	-0.10546875	0.234130859375	5.708	-80.173	42.423	E	0.5215182061240505	-7.641502626260506	10.927135973410032	None	gpsLong	gpsLat	700	1000	1000	1000	1000
2019-04-18	20:08:14	-230.4840087890625	218.68896484375	85.91461181640625	-0.58154296875	-0.018310546875	0.28759765625	3.788	-75.118	43.845	E	0.5818311616177196	1.9199925129462847	-5.055437946056784	W	gpsLong	gpsLat	700	1000	1000	1000	1000
2019-04-18	20:08:15	76.1566162109375	-11.84844970703125	-244.171142578125	-1.09375	0.023681640625	0.796875	-8.587	-42.551	51.306	E	1.0940063448640012	12.375508153125798	-32.567392438776565	W	gpsLong	gpsLat	700	1000	1000	1000	1000
2019-04-18	20:08:15	117.16461181640625	-168.0908203125	41.00799560546875	-0.064697265625	-0.29052734375	1.17333984375	-10.665	-1.963	50.1	E	0.2976438704992637	2.0781326995749847	-40.58786680175243	W	gpsLong	gpsLat	700	1000	1000	1000	1000
2019-04-18	20:08:15	-64.4378662109375	35.13336181640625	-9.796142578125	0.00390625	-0.19580078125	1.070556640625	-5.901	12.966	51.66	E	0.19583974246095415	-4.763918312755443	-14.929012990521507	S	gpsLong	gpsLat	700	1000	1000	1000	1000
2019-04-18	20:08:15	-148.41461181640625	-119.13299560546875	-70.3277587890625	0.33056640625	-0.173828125	1.039794921875	2.703	13.029	53.761	E	0.37348409066793686	-8.604783986938926	-0.06282933123268641	SE	gpsLong	gpsLat	700	1000	1000	1000	1000
2019-04-18	20:08:15	35.14862060546875	76.1871337890625	-29.3121337890625	0.23193359375	-0.001708984375	1.028564453125	1.052	11.65	53.554	E	0.23193988992276432	1.6516555519290674	1.3787895264256456	N	gpsLong	gpsLat	700	1000	1000	1000	1000
2019-04-18	20:08:15	-74.22637939453125	-240.203857421875	95.703125	0.07861328125	-0.0048828125	1.04638671875	0.711	3.239	53.542	E	0.0787647754189762	0.34018657452880685	8.411188457490388	N	gpsLong	gpsLat	700	1000	1000	1000	1000
2019-04-18	20:08:15	25.390625	13.671875	29.296875	0.021240234375	-0.0048828125	1.050537109375	0.689	0.76	53.174	E	0.021794251861788877	0.022688995799591827	2.478657562838963	None	gpsLong	gpsLat	700	1000	1000	1000	1000
2019-04-18	20:08:16	13.671875	-0.00762939453125	29.296875	0.02001953125	-0.00341796875	1.052734375	0.654	0.806	53.104	E	0.020309213225669358	0.03452374554930715	-0.04558846504903402	None	gpsLong	gpsLat	700	1000	1000	1000	1000
2019-04-18	20:08:16	29.296875	5.859375	21.484375	-0.041748046875	-0.013671875	1.064697265625	0.687	0.832	53.044	E	0.04392971185761207	-0.03266620568707601	-0.025891166955865352	None	gpsLong	gpsLat	700	1000	1000	1000	1000
2019-04-18	20:08:16	31.25	39.0625	-158.2183837890625	0.02783203125	-0.0166015625	1.05322265625	0.65	0.778	53.436	E	0.03240731153524437	0.03653000356487546	0.05344325463381172	None	gpsLong	gpsLat	700	1000	1000	1000	1000
2019-04-18	20:08:16	25.390625	33.203125	144.50836181640625	0.053466796875	0.013916015625	1.048095703125	0.71	0.65	56.301	SE	0.05524811181341634	-0.0594679601587873	0.12850889597002146	None	gpsLong	gpsLat	700	1000	1000	1000	1000
2019-04-18	20:08:16	21.484375	23.4375	-97.67913818359375	0.0439453125	0.00146484375	1.060546875	0.7	0.609	58.071	SE	0.04396971978458096	0.009969916784772548	0.04076441175952461	None	gpsLong	gpsLat	700	1000	1000	1000	1000
2019-04-18	20:08:16	-13.67950439453125	11.71875	-246.11663818359375	0.0341796875	0.024169921875	1.0654296875	0.742	0.561	60.246	SE	0.04186210889385841	-0.04257202548332528	0.04782875103602213	None	gpsLong	gpsLat	700	1000	1000	1000	1000
2019-04-18	20:08:16	33.203125	17.578125	-207.0465087890625	0.028076171875	-0.009765625	1.05810546875	0.744	0.523	61.987	SE	0.029726063627651175	-0.0014931855761806112	0.038824039804776445	None	gpsLong	gpsLat	700	1000	1000	1000	1000
2019-04-18	20:08:17	31.25	15.625	19.53125	0.027099609375	-0.006103515625	1.057861328125	0.732	0.565	62.808	SE	0.027778440043713885	0.011946719070909606	-0.04223984535912895	None	gpsLong	gpsLat	700	1000	1000	1000	1000
2019-04-18	20:08:17	74.21875	-5.86700439453125	-167.938232421875	0.20166015625	0.050537109375	1.055908203125	0.798	0.873	61.411	SE	0.2078961713037427	-0.06647603200339125	-0.3084481604493303	SW	gpsLong	gpsLat	700	1000	1000	1000	1000
2019-04-18	20:08:17	29.296875	-0.00762939453125	-224.60174560546875	-0.01416015625	-0.018798828125	1.054443359375	0.644	0.982	56.755	SE	0.023535206901527446	0.15463673114701848	-0.10914075823327096	W	gpsLong	gpsLat	700	1000	1000	1000	1000
2019-04-18	20:08:17	42.96875	-0.00762939453125	87.91351318359375	0.024658203125	-0.002197265625	1.0400390625	0.597	1.145	53.552	E	0.024755907528922594	0.04653638182491682	-0.16312309549947301	SW	gpsLong	gpsLat	700	1000	1000	1000	1000
2019-04-18	20:08:17	21.484375	3.90625	41.015625	0.017822265625	-0.005615234375	1.057861328125	0.49	1.253	49.926	E	0.018685930779445754	0.10712573940184816	-0.10787322277987998	W	gpsLong	gpsLat	700	1000	1000	1000	1000
2019-04-18	20:08:17	27.34375	-3.91387939453125	-89.83612060546875	-0.053955078125	-0.020751953125	1.054443359375	0.445	1.279	47.218	E	0.05780825212698487	0.04477370948709286	-0.026092238357864783	None	gpsLong	gpsLat	700	1000	1000	1000	1000
2019-04-18	20:08:18	39.0625	0.0	-103.50799560546875	0.0361328125	-0.004638671875	1.055419921875	0.401	1.297	44.824	E	0.036429348277509335	0.04392671966637213	-0.017594009458462345	None	gpsLong	gpsLat	700	1000	1000	1000	1000
2019-04-18	20:08:18	27.34375	9.765625	191.40625	0.021728515625	-0.004150390625	1.057373046875	0.366	1.285	43.011	E	0.022121350175926355	0.035446195247165524	0.012532743524700019	None	gpsLong	gpsLat	700	1000	1000	1000	1000
2019-04-18	20:08:18	78.125	52.734375	-171.86737060546875	0.008544921875	-0.000732421875	1.0556640625	0.472	1.213	42.057	E	0.008576253940551903	-0.10638590000321024	0.07168459786103276	SE	gpsLong	gpsLat	700	1000	1000	1000	1000
2019-04-18	20:08:18	50.78125	25.390625	76.1871337890625	-0.005859375	-0.012451171875	1.0634765625	0.679	0.945	39.845	E	0.013760957686564407	-0.2069659998987044	0.26767435574668774	None	gpsLong	gpsLat	700	1000	1000	1000	1000
2019-04-18	20:08:18	13.671875	5.859375	-173.8128662109375	-0.00390625	-0.000244140625	1.067138671875	0.878	0.744	37.811	E	0.003913871958467138	-0.1988171079666231	0.20135492059922977	None	gpsLong	gpsLat	700	1000	1000	1000	1000
2019-04-18	20:08:18	29.296875	17.578125	111.3433837890625	0.013671875	-0.002197265625	1.060302734375	0.842	0.706	35.273	E	0.013847315344225813	0.03588097782860933	0.03745869137953983	None	gpsLong	gpsLat	700	1000	1000	1000	1000
2019-04-18	20:08:18	15.625	0.0	121.11663818359375	-0.013427734375	0.010986328125	1.0654296875	0.813	0.725	32.645	NE	0.017349451176210808	0.029057058047450735	-0.01854027709016859	None	gpsLong	gpsLat	700	1000	1000	1000	1000
2019-04-18	20:08:19	17.578125	13.671875	58.6090087890625	0.0048828125	0.004150390625	1.056884765625	0.794	0.682	29.823	NE	0.006408400756057953	0.019411915982321504	0.043260593631397004	None	gpsLong	gpsLat	700	1000	1000	1000	1000
2019-04-18	20:08:19	19.53125	5.859375	-123.0316162109375	0.0107421875	0.00439453125	1.060302734375	0.777	0.634	27.763	NE	0.011606312816410853	0.017216838757630692	0.047164879803018867	None	gpsLong	gpsLat	700	1000	1000	1000	1000
2019-04-18	20:08:19	15.625	9.765625	164.0777587890625	0.002685546875	0.010498046875	1.05615234375	0.796	0.597	25.482	NE	0.010836104014244213	-0.0192318637250265	0.0375650640514853	None	gpsLong	gpsLat	700	1000	1000	1000	1000
2019-04-18	20:08:19	19.53125	1.953125	-208.97674560546875	0.000244140625	0.011962890625	1.063232421875	0.824	0.556	23.648	NE	0.011965381596526216	-0.02772459336011912	0.04132814052143996	None	gpsLong	gpsLat	700	1000	1000	1000	1000
2019-04-18	20:08:19	17.578125	11.71875	197.27325439453125	0.0	0.004638671875	1.06689453125	0.851	0.515	22.072	NE	0.004638671875	-0.026979977466603633	0.040117395952449564	None	gpsLong	gpsLat	700	1000	1000	1000	1000
2019-04-18	20:08:19	15.625	3.90625	87.91351318359375	0.005615234375	-0.0166015625	1.054931640625	0.85	0.526	19.198	NE	0.017525488139495227	0.0008142754555244824	-0.010679562896328654	None	gpsLong	gpsLat	700	1000	1000	1000	1000
2019-04-18	20:08:19	15.625	11.71875	-97.64862060546875	0.014892578125	0.02978515625	1.06201171875	0.896	0.557	16.063	NE	0.03330081704772636	-0.0458512135411	-0.031107711158181672	None	gpsLong	gpsLat	700	1000	1000	1000	1000
2019-04-18	20:08:20	21.484375	7.8125	39.0625	0.00341796875	0.01513671875	1.05810546875	0.966	0.482	15.318	NE	0.015517820880928422	-0.07046423724407813	0.07499882549104558	None	gpsLong	gpsLat	700	1000	1000	1000	1000
2019-04-18	20:08:20	17.578125	15.625	142.58575439453125	0.007080078125	0.0185546875	1.058349609375	0.984	0.365	14.584	NE	0.019859605597260983	-0.017961648027067123	0.11680349181918487	None	gpsLong	gpsLat	700	1000	1000	1000	1000
2019-04-18	20:08:20	25.390625	7.8125	37.109375	-0.00146484375	0.01416015625	1.057373046875	1.057	0.292	14.399	NE	0.01423572239952466	-0.07298239298925824	0.07364922199075896	None	gpsLong	gpsLat	700	1000	1000	1000	1000
2019-04-18	20:08:20	17.578125	15.625	-97.6104736328125	-0.052001953125	0.073486328125	1.05126953125	1.041	0.722	9.362	N	0.090024683004773	0.016475220553936243	-0.42975506396156105	SW	gpsLong	gpsLat	700	1000	1000	1000	1000
2019-04-18	20:08:20	17.578125	9.765625	138.702392578125	-0.006103515625	0.010009765625	1.057373046875	0.979	0.796	3.881	N	0.011723835159709931	0.061160620477909156	-0.07419321447187566	None	gpsLong	gpsLat	700	1000	1000	1000	1000
2019-04-18	20:08:20	17.578125	7.8125	-124.9847412109375	0.022216796875	0.041015625	1.061279296875	0.981	0.818	-0.367	N	0.04664619553110023	-0.0016268296663101145	-0.02182963000571614	None	gpsLong	gpsLat	700	1000	1000	1000	1000
2019-04-18	20:08:20	21.484375	-5.86700439453125	105.499267578125	-0.036376953125	0.038818359375	1.063720703125	0.949	0.906	-4.323	N	0.053199132917981826	0.03244909747557889	-0.08875353318758661	None	gpsLong	gpsLat	700	1000	1000	1000	1000
2019-04-18	20:08:21	21.484375	-0.00762939453125	-128.8909912109375	-0.01904296875	0.015625	1.0595703125	0.945	0.858	-8.667	N	0.02463280909302625	0.004034027093132497	0.047849642996938835	None	gpsLong	gpsLat	700	1000	1000	1000	1000
2019-04-18	20:08:21	11.71875	-11.72637939453125	60.577392578125	0.05029296875	0.024169921875	1.060791015625	0.942	0.879	-12.7	NW	0.055799353303887675	0.0026481926419476	-0.020503333387970946	None	gpsLong	gpsLat	700	1000	1000	1000	1000
2019-04-18	20:08:21	19.53125	1.953125	80.108642578125	0.014404296875	0.014404296875	1.06298828125	0.944	0.95	-17.167	NW	0.020370751997073392	-0.0016746024866227671	-0.07128470896607597	None	gpsLong	gpsLat	700	1000	1000	1000	1000
2019-04-18	20:08:21	19.53125	0.0	5.88226318359375	0.005615234375	0.03759765625	1.069580078125	0.968	0.946	-21.204	NW	0.038014663125948464	-0.02488234080826579	0.004397532998136167	None	gpsLong	gpsLat	700	1000	1000	1000	1000
2019-04-18	20:08:21	19.53125	1.953125	228.5308837890625	-0.0029296875	0.03369140625	1.064208984375	0.998	1.042	-24.003	NW	0.03381854408383358	-0.030005695778604347	-0.09596328603593485	SW	gpsLong	gpsLat	700	1000	1000	1000	1000
2019-04-18	20:08:21	19.53125	11.71875	31.2652587890625	0.01171875	0.03955078125	1.064453125	1.047	1.016	-27.691	NW	0.04125037453221306	-0.0484091677478421	0.026321693255709988	None	gpsLong	gpsLat	700	1000	1000	1000	1000
2019-04-18	20:08:21	27.34375	7.8125	29.296875	0.006591796875	0.029296875	1.059814453125	1.206	0.933	-28.232	NW	0.030029296875	-0.15889220381421176	0.08222669147919415	SE	gpsLong	gpsLat	700	1000	1000	1000	1000
2019-04-18	20:08:22	29.296875	5.859375	23.4375	0.00927734375	0.03466796875	1.056640625	1.392	0.852	-28.288	NW	0.03588784145510344	-0.1860903295167604	0.08083758056311241	SE	gpsLong	gpsLat	700	1000	1000	1000	1000
2019-04-18	20:08:22	105.46875	-60.55450439453125	23.4375	0.01318359375	0.03466796875	1.0615234375	1.629	0.855	-28.339	NW	0.03709009573209559	-0.23706192936814685	-0.00243234122314806	SE	gpsLong	gpsLat	700	1000	1000	1000	1000
2019-04-18	20:08:22	37.109375	-3.91387939453125	46.875	0.0166015625	0.038818359375	1.05078125	2.181	1.172	-28.894	NW	0.042219390118854824	-0.5521671669496553	-0.3174381121367623	S	gpsLong	gpsLat	700	1000	1000	1000	1000
2019-04-18	20:08:22	201.17950439453125	-31.25762939453125	35.15625	0.0146484375	0.042724609375	1.08984375	3.123	1.218	-28.953	NW	0.045166015625	-0.9422170339821285	-0.045692219835577585	SE	gpsLong	gpsLat	700	1000	1000	1000	1000
2019-04-18	20:08:22	-121.10137939453125	-29.30450439453125	-248.05450439453125	-0.0517578125	0.1533203125	1.031982421875	7.608	0.574	-28.1	NW	0.1618208558248374	-4.484890526010311	0.6436380386978648	None	gpsLong	gpsLat	700	1000	1000	1000	1000
2019-04-18	20:08:22	83.99200439453125	216.796875	-208.97674560546875	-0.0302734375	0.17138671875	1.066650390625	10.239	0.039	-28.798	NW	0.1740399045677686	-2.630320279571561	0.5350420354848832	None	gpsLong	gpsLat	700	1000	1000	1000	1000
2019-04-18	20:08:22	-189.44549560546875	244.140625	-74.21875	0.005859375	0.2373046875	1.041748046875	13.846	-0.504	-30.49	NW	0.2373770144408748	-3.6074288790273172	0.5431279341265671	None	gpsLong	gpsLat	700	1000	1000	1000	1000
2019-04-18	20:08:23	62.5152587890625	-250.0	-216.796875	-0.058837890625	0.36474609375	0.963623046875	18.828	-1.427	-29.619	NW	0.3694612432706349	-4.981656893477563	0.9236218192778679	None	gpsLong	gpsLat	700	1000	1000	1000	1000
2019-04-18	20:08:23	-242.17987060546875	201.171875	50.78125	-0.028564453125	0.37060546875	0.99365234375	22.19	-2.008	-29.608	NW	0.37170464276053583	-3.362727899420509	0.5805779111744624	None	gpsLong	gpsLat	700	1000	1000	1000	1000
2019-04-18	20:08:23	-132.8125	148.4375	-248.046875	-0.051025390625	0.447265625	0.961181640625	26.62	-2.801	-28.805	NW	0.4501667799772374	-4.429654838013754	0.7934547693500513	None	gpsLong	gpsLat	700	1000	1000	1000	1000
2019-04-18	20:08:23	248.06976318359375	-89.84375	52.734375	-0.072265625	0.54541015625	0.881591796875	33.468	-4.039	-27.783	NW	0.5501768434760682	-6.848300542252286	1.237467323172567	None	gpsLong	gpsLat	700	1000	1000	1000	1000
2019-04-18	20:08:23	-246.07086181640625	-208.984375	-62.50762939453125	-0.10986328125	0.658935546875	0.7958984375	41.965	-5.66	-24.667	NW	0.6680314330197883	-8.497117923457509	1.6211518773007327	None	gpsLong	gpsLat	700	1000	1000	1000	1000
2019-04-18	20:08:23	-195.281982421875	201.17950439453125	-228.515625	-0.090576171875	0.763671875	0.6708984375	51.711	-6.854	-21.241	NW	0.7690245611016239	-9.745199830128769	1.19386863893041	None	gpsLong	gpsLat	700	1000	1000	1000	1000
2019-04-18	20:08:24	236.35101318359375	-197.265625	-56.64825439453125	-0.138671875	0.8642578125	0.56640625	59.195	-7.726	-17.533	NW	0.8753122045209359	-7.484533138261092	0.8720575732144695	None	gpsLong	gpsLat	700	1000	1000	1000	1000
2019-04-18	20:08:24	-25.3753662109375	140.625	-103.52325439453125	-0.16162109375	0.9189453125	0.439453125	66.22	-8.71	-12.997	NW	0.9330497657202798	-7.025032556942087	0.983821589558409	None	gpsLong	gpsLat	700	1000	1000	1000	1000
2019-04-18	20:08:24	160.1715087890625	72.27325439453125	64.453125	-0.165283203125	0.956787109375	0.35302734375	70.3	-9.239	-10.544	N	0.9709583461206913	-4.079913182335929	0.5288323450046359	None	gpsLong	gpsLat	700	1000	1000	1000	1000
2019-04-18	20:08:24	-58.57086181640625	78.13262939453125	-44.92950439453125	-0.186279296875	0.978271484375	0.215087890625	76.132	-9.988	-5.383	N	0.9958489210645911	-5.832051917677532	0.7493453217546584	None	gpsLong	gpsLat	700	1000	1000	1000	1000
2019-04-18	20:08:24	-175.75836181640625	162.109375	128.90625	-0.19287109375	0.96484375	0.944091796875	79.661	-9.8	-0.622	N	0.9839322744571314	-3.528916728860807	-0.18848587061593491	S	gpsLong	gpsLat	700	1000	1000	1000	1000
2019-04-18	20:08:24	203.13262939453125	-56.64825439453125	5.859375	-0.183349609375	0.992919921875	0.01123046875	79.501	-10.454	2.845	N	1.0097064179820892	0.15963961351830847	0.6548823837888111	N	gpsLong	gpsLat	700	1000	1000	1000	1000
2019-04-18	20:08:24	-33.21075439453125	23.4375	5.859375	-0.19482421875	0.995849609375	0.01025390625	79.469	-10.455	3.004	N	1.014728003311177	0.03282284697060334	0.0002897816237261708	None	gpsLong	gpsLat	700	1000	1000	1000	1000
2019-04-18	20:08:25	-187.52288818359375	214.83612060546875	60.546875	-0.206298828125	0.9931640625	0.060546875	79.458	-10.354	0.509	N	1.014363870377515	0.010632071344517158	-0.10063547948352536	SW	gpsLong	gpsLat	700	1000	1000	1000	1000
2019-04-18	20:08:25	142.52471923828125	58.5784912109375	-191.40625	-0.205810546875	0.959716796875	0.23193359375	73.732	-9.804	-7.744	N	0.9815367091499922	5.725458731532882	-0.550188460891258	W	gpsLong	gpsLat	700	1000	1000	1000	1000
2019-04-18	20:08:25	-13.74053955078125	-140.64788818359375	-3.91387939453125	-0.138671875	1.014404296875	0.47119140625	56.452	-6.902	-19.701	NW	1.0238388381158818	17.28021240387703	-2.9017929091467494	W	gpsLong	gpsLat	700	1000	1000	1000	1000
2019-04-18	20:08:25	-154.39605712890625	72.235107421875	-15.64788818359375	-0.130126953125	0.562255859375	0.888916015625	29.58	-5.941	-27.892	NW	0.5771175576354576	26.87242415350694	-0.9612213975741142	W	gpsLong	gpsLat	700	1000	1000	1000	1000
2019-04-18	20:08:25	-56.70166015625	-15.655517578125	-230.4840087890625	-0.0263671875	0.1201171875	1.032958984375	4.748	2.333	-27.938	NW	0.12297710075282435	24.83207017565139	-8.273878347817138	W	gpsLong	gpsLat	700	1000	1000	1000	1000
2019-04-18	20:08:25	23.4375	13.671875	13.671875	0.013427734375	0.026123046875	1.050537109375	0.243	1.607	-27.839	NW	0.0293720552307632	4.504979468045778	0.7256461271268715	N	gpsLong	gpsLat	700	1000	1000	1000	1000
2019-04-18	20:08:25	25.390625	9.765625	21.484375	0.011962890625	0.024169921875	1.05712890625	0.454	1.506	-27.853	NW	0.0269684236756492	-0.2114595007917668	0.1015743391652355	None	gpsLong	gpsLat	700	1000	1000	1000	1000
2019-04-18	20:08:26	27.34375	11.71875	29.296875	0.012939453125	0.024658203125	1.058837890625	0.671	1.371	-26.379	NW	0.0278470183058767	-0.21646724240771298	0.1347711614523157	None	gpsLong	gpsLat	700	1000	1000	1000	1000
2019-04-18	20:08:26	25.390625	3.90625	-181.640625	0.0146484375	0.022705078125	1.056884765625	0.84	1.258	-26.628	NW	0.027020312615766675	-0.1693088777192714	0.1126397797497074	None	gpsLong	gpsLat	700	1000	1000	1000	1000
2019-04-18	20:08:26	35.15625	17.578125	29.296875	0.013671875	0.021240234375	1.0537109375	0.95	1.203	-26.896	NW	0.02526000242123022	-0.11012105964407981	0.054897925427470406	SE	gpsLong	gpsLat	700	1000	1000	1000	1000
2019-04-18	20:08:26	37.109375	19.53125	25.390625	0.009765625	0.021728515625	1.063720703125	1.106	1.096	-26.962	NW	0.02382217082691026	-0.15576835397082078	0.10726805700878206	None	gpsLong	gpsLat	700	1000	1000	1000	1000
2019-04-18	20:08:26	31.25	9.765625	1.96075439453125	0.00048828125	0.011962890625	1.054931640625	1.293	0.972	-27.212	NW	0.01197285140160081	-0.1874810390638797	0.12435851058612701	None	gpsLong	gpsLat	700	1000	1000	1000	1000
2019-04-18	20:08:26	-9.77325439453125	-31.25762939453125	31.25	0.018798828125	0.018310546875	1.056640625	1.26	1.087	-27.918	NW	0.026242562103096247	0.033248066712450175	-0.11544447317097306	SW	gpsLong	gpsLat	700	1000	1000	1000	1000
2019-04-18	20:08:26	107.421875	37.109375	-80.08575439453125	-0.00927734375	0.257080078125	1.213134765625	1.823	0.982	-28.303	NW	0.2572474211256777	-0.5625360950035319	0.10549742751983548	None	gpsLong	gpsLat	700	1000	1000	1000	1000
2019-04-18	20:08:27	142.6239013671875	-5.85174560546875	-236.38916015625	0.102783203125	0.46630859375	1.3837890625	12.095	-7.349	-26.472	NW	0.47750192821572723	-10.272674993308422	8.330985819110673	None	gpsLong	gpsLat	700	1000	1000	1000	1000
2019-04-18	20:08:27	103.58428955078125	-121.11663818359375	126.9378662109375	-0.265625	0.061767578125	1.0458984375	26.091	-7.739	-19.425	NW	0.2727120722161525	-13.995563889423467	0.3897637531167746	None	gpsLong	gpsLat	700	1000	1000	1000	1000
2019-04-18	20:08:27	-52.72674560546875	-207.03887939453125	-7.8125	-0.4677734375	0.0966796875	0.906982421875	36.256	-7.861	-17.138	NW	0.47765986936905647	-10.16493447316412	0.12231768902712226	None	gpsLong	gpsLat	700	1000	1000	1000	1000
2019-04-18	20:08:27	144.4854736328125	31.280517578125	91.7816162109375	-0.14453125	0.082275390625	1.29736328125	25.617	-18.642	-18.579	NW	0.16630851490245122	10.638967785032765	10.780284338529327	N	gpsLong	gpsLat	700	1000	1000	1000	1000
2019-04-18	20:08:27	144.46258544921875	-132.7972412109375	-165.985107421875	-0.433349609375	0.42822265625	1.370849609375	8.34	-24.75	-23.758	NW	0.6092343779460174	17.27653587369139	6.108079695239599	N	gpsLong	gpsLat	700	1000	1000	1000	1000
2019-04-18	20:08:27	42.90008544921875	52.8106689453125	-216.8426513671875	-0.811767578125	0.0546875	1.264404296875	-11.021	-37.157	-27.168	NW	0.8136075980171141	19.361747023904627	12.407506966830457	N	gpsLong	gpsLat	700	1000	1000	1000	1000
2019-04-18	20:08:27	7.781982421875	-195.2972412109375	-52.734375	-0.623291015625	0.11474609375	0.436279296875	-17.662	-51.903	-30.763	NW	0.6337652216631391	6.640944497278523	14.745661589442008	N	gpsLong	gpsLat	700	1000	1000	1000	1000
2019-04-18	20:08:28	-3.89862060546875	52.71148681640625	-191.40625	-0.4326171875	0.087890625	0.323974609375	-15.857	-52.495	-31.568	NW	0.44145485939482054	-1.8049026227366252	0.5919571142566227	None	gpsLong	gpsLat	700	1000	1000	1000	1000
2019-04-18	20:08:28	164.093017578125	244.07196044921875	-183.58612060546875	-0.6201171875	0.172607421875	0.862060546875	-4.243	-40.429	-31.458	NW	0.6436914232139841	-11.614318843390087	-12.06551747361219	S	gpsLong	gpsLat	700	1000	1000	1000	1000
2019-04-18	20:08:28	128.9825439453125	234.2681884765625	-132.8125	-0.30322265625	0.3369140625	1.353271484375	14.733	-14.357	-27.294	NW	0.4532715133047295	-18.976253201559068	-26.072431481982093	S	gpsLong	gpsLat	700	1000	1000	1000	1000
2019-04-18	20:08:28	154.35791015625	11.65008544921875	-1.97601318359375	-0.282470703125	0.29150390625	1.197998046875	34.967	3.743	-21.418	NW	0.40591159811335853	-20.233649634197832	-18.099509029781526	S	gpsLong	gpsLat	700	1000	1000	1000	1000
2019-04-18	20:08:28	-249.969482421875	123.02398681640625	-115.24200439453125	0.173828125	0.449462890625	0.71044921875	48.324	12.799	-17.678	NW	0.48190570352507384	-13.357043781788015	-9.056486068546613	S	gpsLong	gpsLat	700	1000	1000	1000	1000
2019-04-18	20:08:28	-154.3121337890625	-124.9847412109375	234.36737060546875	0.036376953125	0.22412109375	0.546630859375	45.766	16.293	-19.647	NW	0.22705406268630107	2.5576720004133193	-3.4934626326981615	W	gpsLong	gpsLat	700	1000	1000	1000	1000
2019-04-18	20:08:28	205.0018310546875	214.8895263671875	220.733642578125	0.162353515625	0.379150390625	1.59814453125	33.014	4.921	-22.753	NW	0.4124484001022276	12.752352966005809	11.372009653723767	N	gpsLong	gpsLat	700	1000	1000	1000	1000
2019-04-18	20:08:29	117.08831787109375	58.6395263671875	46.83685302734375	0.1865234375	0.8486328125	0.453125	11.488	-10.18	-21.826	NW	0.868889315844358	21.525737485604402	15.100960446194863	N	gpsLong	gpsLat	700	1000	1000	1000	1000
2019-04-18	20:08:29	185.49346923828125	-158.19549560546875	121.11663818359375	-0.073974609375	0.205078125	1.431884765625	-2.687	-19.314	-23.722	NW	0.2180121101812912	14.174675820555871	9.13322472121412	N	gpsLong	gpsLat	700	1000	1000	1000	1000
2019-04-18	20:08:29	117.16461181640625	-214.8590087890625	144.53887939453125	-0.4091796875	0.154541015625	0.813232421875	-9.283	-16.029	-27.493	NW	0.4373910632066048	6.596804265442003	-3.2843781845703397	W	gpsLong	gpsLat	700	1000	1000	1000	1000
2019-04-18	20:08:29	-193.36700439453125	-82.03125	-218.75	-0.33984375	0.086669921875	0.597412109375	-9.5	-17.949	-29.59	NW	0.3507213277972714	0.21658225602241998	1.9200745288427825	N	gpsLong	gpsLat	700	1000	1000	1000	1000
2019-04-18	20:08:29	-183.5784912109375	214.84375	50.78887939453125	-0.413818359375	0.03564453125	1.091064453125	-4.671	-18.255	-30.18	NW	0.4153506556680137	-4.829241095278937	0.30621462538544364	None	gpsLong	gpsLat	700	1000	1000	1000	1000
2019-04-18	20:08:29	-93.72711181640625	-207.08465576171875	113.27362060546875	-0.031005859375	0.167724609375	1.18994140625	3.368	-11.665	-29.491	NW	0.17056643252873238	-8.039018310377957	-6.590141331579979	S	gpsLong	gpsLat	700	1000	1000	1000	1000
2019-04-18	20:08:29	-203.08685302734375	-66.4520263671875	-126.953125	-0.234130859375	0.276611328125	1.25927734375	15.146	-0.363	-28.253	NW	0.3623963109066543	-11.77777648502787	-11.302716865752322	S	gpsLong	gpsLat	700	1000	1000	1000	1000
2019-04-18	20:08:30	220.733642578125	-15.6707763671875	-13.671875	0.03759765625	0.2705078125	1.165771484375	25.645	9.565	-28.172	NW	0.2731081477712233	-10.499324819806198	-9.927847346973184	S	gpsLong	gpsLat	700	1000	1000	1000	1000
2019-04-18	20:08:30	-29.296875	-25.4058837890625	-11.71875	0.032958984375	0.172119140625	0.862060546875	27.082	11.078	-27.911	NW	0.17524637862312595	-1.436154047554762	-1.5126923319026684	S	gpsLong	gpsLat	700	1000	1000	1000	1000
2019-04-18	20:08:30	179.67987060546875	-183.59375	140.6097412109375	-0.013671875	0.18994140625	0.90283203125	24.288	9.121	-27.802	NW	0.19043281748228996	2.7937871339540905	1.9573189335284198	N	gpsLong	gpsLat	700	1000	1000	1000	1000
2019-04-18	20:08:30	15.5792236328125	-208.953857421875	-164.08538818359375	0.109619140625	-0.065673828125	1.575439453125	16.226	1.803	-25.594	NW	0.1277865708592087	8.061364084452592	7.317393308443458	N	gpsLong	gpsLat	700	1000	1000	1000	1000
2019-04-18	20:08:30	-238.34991455078125	183.64715576171875	-191.4215087890625	-0.174072265625	0.23779296875	1.091064453125	-2.595	-14.767	-26.518	NW	0.2946975562280065	18.821558208638116	16.569891384581016	N	gpsLong	gpsLat	700	1000	1000	1000	1000
2019-04-18	20:08:30	109.35211181640625	220.74127197265625	138.6871337890625	-0.249267578125	0.05029296875	0.94580078125	-9.725	-29.577	-28.696	NW	0.25429059795830333	7.129615064277716	14.810834414479194	N	gpsLong	gpsLat	700	1000	1000	1000	1000
2019-04-18	20:08:30	15.61737060546875	95.7489013671875	-64.46075439453125	-0.654296875	-0.092529296875	0.778564453125	-9.223	-41.693	-32.355	NW	0.6608071363226546	-0.5021171655665171	12.115421560523885	None	gpsLong	gpsLat	700	1000	1000	1000	1000
2019-04-18	20:08:31	-164.05487060546875	234.38262939453125	158.21075439453125	-0.607421875	-0.106689453125	0.740234375	-7.615	-49.982	-32.973	NW	0.6167203366491388	-1.607943321122355	8.289086168928215	None	gpsLong	gpsLat	700	1000	1000	1000	1000
2019-04-18	20:08:31	33.203125	60.49346923828125	-58.58612060546875	-0.483154296875	-0.031982421875	0.8974609375	-4.819	-39.91	-33.078	NW	0.48421167881182514	-2.7956001280268303	-10.072045778597598	S	gpsLong	gpsLat	700	1000	1000	1000	1000
